{
  "locations": [{
		"location": "18th at Canal",
    "latitude": "41.857655",
    "longitude": "-87.638935",
    "dateCounts": [
    	{
    		"date": "20140909",
  		"counts": {
  			"maleAM": 80,
  			"malePM": 132,
  			"femaleAM": 33,
  			"femalePM": 46
  		}
  	},{
  		"date": "20140801",
  		"counts": {
  			"maleAM": 57,
  			"malePM": 121,
  			"femaleAM": 18,
  			"femalePM": 53
  		}
  	},{
  		"date": "20141021",
  		"counts": {
  			"maleAM": 57,
  			"malePM": 121,
  			"femaleAM": 18,
  			"femalePM": 53
  		}
  	},{
  		"date": "20140415",
  		"counts": {
  			"maleAM": 57,
  			"malePM": 121,
  			"femaleAM": 18,
  			"femalePM": 53
  		}
  	},{
  		"date": "20130814",
  		"counts": {
  			"maleAM": 57,
  			"malePM": 121,
  			"femaleAM": 18,
  			"femalePM": 53
  		}
  	},{
  		"date": "20130417",
  		"counts": {
  			"maleAM": 57,
  			"malePM": 121,
  			"femaleAM": 18,
  			"femalePM": 53
  		}
  	},{
  		"date": "20141125",
  		"counts": {
  			"maleAM": 57,
  			"malePM": 121,
  			"femaleAM": 18,
  			"femalePM": 53
  		}
  	},{
  		"date": "20140610",
  		"counts": {
  			"maleAM": 57,
  			"malePM": 121,
  			"femaleAM": 18,
  			"femalePM": 53
  		}
  	},{
  		"date": "20141216",
  		"counts": {
  			"maleAM": 57,
  			"malePM": 121,
  			"femaleAM": 18,
  			"femalePM": 53
  		}
  	},{
  		"date": "20140708",
  		"counts": {
  			"maleAM": 57,
  			"malePM": 121,
  			"femaleAM": 18,
  			"femalePM": 53
  		}
  	}]
  },
  {
		"location": "Clark at Lincoln",
    "latitude": "41.915614",
    "longitude": "-87.634344",
    "dateCounts": [{
      "date": "20140909",
  		"count": {
  			"maleAM": 290,
  			"malePM": 538,
  			"femaleAM": 114,
  			"femalePM": 232
	    }
    }]
  },
  {
    "location": "Jackson at Halsted",
    "latitude": "41.877955",
    "longitude": "-87.647233"
  },
  {
    "location": "King at 31st",
    "latitude": "41.838430",
    "longitude": "-87.617309"
  },
  {
    "location": "Lake at Damen",
    "latitude": "41.884987",
    "longitude": "-87.676732"
  },
  {
    "location": "Milwaukee at Elston",
    "latitude": "41.896989",
    "longitude": "-87.656559"
  }]
}
