{"type":"FeatureCollection","features":[{"type":"Feature","properties":{"ID":"5","Station Name":"State St & Harrison St","Address":"620 S. State St.","Total Docks":"19","Docks in Service":"19","Status":"In Service","Latitude":"41.873958063","Longitude":"-87.627739486","Location":"(41.8739580629, -87.6277394859)"},"geometry":{"type":"Point","coordinates":[-87.627739486,41.873958063]}},{"type":"Feature","properties":{"ID":"13","Station Name":"Wilton Ave & Diversey Pkwy","Address":"2790 N.Wilton Ave","Total Docks":"19","Docks in Service":"19","Status":"In Service","Latitude":"41.93250008","Longitude":"-87.65268082","Location":"(41.93250008, -87.65268082)"},"geometry":{"type":"Point","coordinates":[-87.65268082,41.93250008]}},{"type":"Feature","properties":{"ID":"14","Station Name":"Morgan St & 18th St","Address":"962 W. 18th St","Total Docks":"15","Docks in Service":"15","Status":"In Service","Latitude":"41.858086","Longitude":"-87.651073","Location":"(41.858086, -87.651073)"},"geometry":{"type":"Point","coordinates":[-87.651073,41.858086]}},{"type":"Feature","properties":{"ID":"15","Station Name":"Racine Ave & 19th St","Address":"1722 S Racine Ave","Total Docks":"15","Docks in Service":"15","Status":"In Service","Latitude":"41.856453","Longitude":"-87.656471","Location":"(41.856453, -87.656471)"},"geometry":{"type":"Point","coordinates":[-87.656471,41.856453]}},{"type":"Feature","properties":{"ID":"16","Station Name":"Wood St & North Ave","Address":"1553 N Wood St","Total Docks":"11","Docks in Service":"11","Status":"In Service","Latitude":"41.910329","Longitude":"-87.672516","Location":"(41.910329, -87.672516)"},"geometry":{"type":"Point","coordinates":[-87.672516,41.910329]}},{"type":"Feature","properties":{"ID":"17","Station Name":"Wood St & Division St","Address":"1802 W. Divison St","Total Docks":"15","Docks in Service":"15","Status":"In Service","Latitude":"41.90332","Longitude":"-87.67273","Location":"(41.90332, -87.67273)"},"geometry":{"type":"Point","coordinates":[-87.67273,41.90332]}},{"type":"Feature","properties":{"ID":"19","Station Name":"Loomis St & Taylor St","Address":"Loomis St & Taylor St","Total Docks":"15","Docks in Service":"15","Status":"In Service","Latitude":"41.869417","Longitude":"-87.660996","Location":"(41.869417, -87.660996)"},"geometry":{"type":"Point","coordinates":[-87.660996,41.869417]}},{"type":"Feature","properties":{"ID":"20","Station Name":"Sheffield Ave & Kingsbury St","Address":"1009 W. Weed st","Total Docks":"15","Docks in Service":"15","Status":"In Service","Latitude":"41.90959193","Longitude":"-87.65349723","Location":"(41.90959193, -87.65349723)"},"geometry":{"type":"Point","coordinates":[-87.65349723,41.90959193]}},{"type":"Feature","properties":{"ID":"21","Station Name":"Aberdeen St & Jackson Blvd","Address":"1103 W.Jackson Blvd","Total Docks":"15","Docks in Service":"15","Status":"In Service","Latitude":"41.87772613","Longitude":"-87.65478743","Location":"(41.87772613, -87.65478743)"},"geometry":{"type":"Point","coordinates":[-87.65478743,41.87772613]}},{"type":"Feature","properties":{"ID":"22","Station Name":"May St & Taylor St","Address":"1134 W. Taylor St","Total Docks":"15","Docks in Service":"15","Status":"In Service","Latitude":"41.8694821","Longitude":"-87.6554864","Location":"(41.8694821, -87.6554864)"},"geometry":{"type":"Point","coordinates":[-87.6554864,41.8694821]}},{"type":"Feature","properties":{"ID":"23","Station Name":"Orleans St & Elm St","Address":"350 W. Elm st","Total Docks":"15","Docks in Service":"15","Status":"In Service","Latitude":"41.902924","Longitude":"-87.637715","Location":"(41.902924, -87.637715)"},"geometry":{"type":"Point","coordinates":[-87.637715,41.902924]}},{"type":"Feature","properties":{"ID":"24","Station Name":"Fairbanks Ct & Grand Ave","Address":"240 E.Grand Ave.","Total Docks":"15","Docks in Service":"15","Status":"In Service","Latitude":"41.89186","Longitude":"-87.62062","Location":"(41.89186, -87.62062)"},"geometry":{"type":"Point","coordinates":[-87.62062,41.89186]}},{"type":"Feature","properties":{"ID":"25","Station Name":"Michigan Ave & Pearson St","Address":"150 E.Pearson st","Total Docks":"23","Docks in Service":"23","Status":"In Service","Latitude":"41.89766","Longitude":"-87.62351","Location":"(41.89766, -87.62351)"},"geometry":{"type":"Point","coordinates":[-87.62351,41.89766]}},{"type":"Feature","properties":{"ID":"26","Station Name":"McClurg Ct & Illinois St","Address":"McClurg Ct & Illinois St","Total Docks":"31","Docks in Service":"31","Status":"In Service","Latitude":"41.89102","Longitude":"-87.6173","Location":"(41.89102, -87.6173)"},"geometry":{"type":"Point","coordinates":[-87.6173,41.89102]}},{"type":"Feature","properties":{"ID":"27","Station Name":"Larrabee St & North Ave","Address":"1530 N.Larrabee st","Total Docks":"19","Docks in Service":"18","Status":"In Service","Latitude":"41.91021","Longitude":"-87.6435","Location":"(41.91021, -87.6435)"},"geometry":{"type":"Point","coordinates":[-87.6435,41.91021]}},{"type":"Feature","properties":{"ID":"28","Station Name":"Larrabee St & Menomonee St","Address":"590 W. Menomonee","Total Docks":"15","Docks in Service":"15","Status":"In Service","Latitude":"41.91468","Longitude":"-87.64332","Location":"(41.91468, -87.64332)"},"geometry":{"type":"Point","coordinates":[-87.64332,41.91468]}},{"type":"Feature","properties":{"ID":"29","Station Name":"Noble St & Milwaukee Ave","Address":"1016 N. Noble st","Total Docks":"15","Docks in Service":"15","Status":"In Service","Latitude":"41.90068","Longitude":"-87.6626","Location":"(41.90068, -87.6626)"},"geometry":{"type":"Point","coordinates":[-87.6626,41.90068]}},{"type":"Feature","properties":{"ID":"30","Station Name":"Ashland Ave & Augusta Blvd","Address":"1611 W. Augusta Blvd","Total Docks":"15","Docks in Service":"15","Status":"In Service","Latitude":"41.899643","Longitude":"-87.6677","Location":"(41.899643, -87.6677)"},"geometry":{"type":"Point","coordinates":[-87.6677,41.899643]}},{"type":"Feature","properties":{"ID":"31","Station Name":"Franklin St & Chicago Ave","Address":"805 N. Franklin St","Total Docks":"23","Docks in Service":"23","Status":"In Service","Latitude":"41.89680204","Longitude":"-87.63563839","Location":"(41.89680204, -87.63563839)"},"geometry":{"type":"Point","coordinates":[-87.63563839,41.89680204]}},{"type":"Feature","properties":{"ID":"32","Station Name":"Racine Ave & Congress Pkwy","Address":"550 S. Racine","Total Docks":"19","Docks in Service":"19","Status":"In Service","Latitude":"41.87464","Longitude":"-87.65703","Location":"(41.87464, -87.65703)"},"geometry":{"type":"Point","coordinates":[-87.65703,41.87464]}},{"type":"Feature","properties":{"ID":"33","Station Name":"State St & Van Buren St","Address":"360 S State St","Total Docks":"27","Docks in Service":"27","Status":"In Service","Latitude":"41.877181","Longitude":"-87.627844","Location":"(41.877181, -87.627844)"},"geometry":{"type":"Point","coordinates":[-87.627844,41.877181]}},{"type":"Feature","properties":{"ID":"34","Station Name":"Cannon Dr & Fullerton Ave","Address":"2432 N. Cannon Dr.","Total Docks":"15","Docks in Service":"15","Status":"In Service","Latitude":"41.926755988","Longitude":"-87.634428785","Location":"(41.9267559875, -87.6344287848)"},"geometry":{"type":"Point","coordinates":[-87.634428785,41.926755988]}},{"type":"Feature","properties":{"ID":"35","Station Name":"Streeter Dr & Illinois St","Address":"585 E. Illinois st","Total Docks":"39","Docks in Service":"39","Status":"In Service","Latitude":"41.891071","Longitude":"-87.6122","Location":"(41.891071, -87.6122)"},"geometry":{"type":"Point","coordinates":[-87.6122,41.891071]}},{"type":"Feature","properties":{"ID":"36","Station Name":"Franklin St & Jackson Blvd","Address":"340 S. Franklin St","Total Docks":"31","Docks in Service":"31","Status":"In Service","Latitude":"41.877707956","Longitude":"-87.635321141","Location":"(41.8777079559, -87.6353211408)"},"geometry":{"type":"Point","coordinates":[-87.635321141,41.877707956]}},{"type":"Feature","properties":{"ID":"37","Station Name":"Dearborn St & Adams St","Address":"59 W. Adams St ","Total Docks":"19","Docks in Service":"19","Status":"In Service","Latitude":"41.879356359","Longitude":"-87.629791036","Location":"(41.8793563587, -87.6297910363)"},"geometry":{"type":"Point","coordinates":[-87.629791036,41.879356359]}},{"type":"Feature","properties":{"ID":"42","Station Name":"Wabash Ave & Cermak Rd","Address":"13 E Cermak Rd","Total Docks":"11","Docks in Service":"11","Status":"In Service","Latitude":"41.852619","Longitude":"-87.626488","Location":"(41.852619, -87.626488)"},"geometry":{"type":"Point","coordinates":[-87.626488,41.852619]}},{"type":"Feature","properties":{"ID":"43","Station Name":"Michigan Ave & Washington St","Address":"120 N Michigan","Total Docks":"43","Docks in Service":"43","Status":"In Service","Latitude":"41.883892766","Longitude":"-87.624649141","Location":"(41.8838927658, -87.6246491409)"},"geometry":{"type":"Point","coordinates":[-87.624649141,41.883892766]}},{"type":"Feature","properties":{"ID":"44","Station Name":"State St & Randolph St","Address":"State St & Randolph St","Total Docks":"27","Docks in Service":"27","Status":"In Service","Latitude":"41.884730201","Longitude":"-87.627733569","Location":"(41.8847302006, -87.6277335692)"},"geometry":{"type":"Point","coordinates":[-87.627733569,41.884730201]}},{"type":"Feature","properties":{"ID":"45","Station Name":"Michigan Ave & Congress Pkwy","Address":"420 w. Michigan","Total Docks":"15","Docks in Service":"15","Status":"In Service","Latitude":"41.876065599","Longitude":"-87.624433364","Location":"(41.876065599, -87.6244333636)"},"geometry":{"type":"Point","coordinates":[-87.624433364,41.876065599]}},{"type":"Feature","properties":{"ID":"46","Station Name":"Wells St & Walton St","Address":"932 N. Wells St.","Total Docks":"19","Docks in Service":"19","Status":"In Service","Latitude":"41.89993001","Longitude":"-87.63443007","Location":"(41.89993001, -87.63443007)"},"geometry":{"type":"Point","coordinates":[-87.63443007,41.89993001]}},{"type":"Feature","properties":{"ID":"47","Station Name":"State St & Kinzie St","Address":"5 E. Kinzie St.","Total Docks":"19","Docks in Service":"19","Status":"In Service","Latitude":"41.88918","Longitude":"-87.6277","Location":"(41.88918, -87.6277)"},"geometry":{"type":"Point","coordinates":[-87.6277,41.88918]}},{"type":"Feature","properties":{"ID":"48","Station Name":"Larrabee St & Kingsbury St","Address":"840 N. Larrabee St.","Total Docks":"27","Docks in Service":"27","Status":"In Service","Latitude":"41.897764","Longitude":"-87.642884","Location":"(41.897764, -87.642884)"},"geometry":{"type":"Point","coordinates":[-87.642884,41.897764]}},{"type":"Feature","properties":{"ID":"49","Station Name":"Dearborn St & Monroe St","Address":"80 S. Dearborn St.","Total Docks":"27","Docks in Service":"27","Status":"In Service","Latitude":"41.881319815","Longitude":"-87.629520919","Location":"(41.881319815, -87.6295209193)"},"geometry":{"type":"Point","coordinates":[-87.629520919,41.881319815]}},{"type":"Feature","properties":{"ID":"50","Station Name":"Clark St & Congress Pkwy","Address":"Clark St & Congress Pkwy","Total Docks":"27","Docks in Service":"27","Status":"In Service","Latitude":"41.875932666","Longitude":"-87.630584536","Location":"(41.8759326655, -87.6305845355)"},"geometry":{"type":"Point","coordinates":[-87.630584536,41.875932666]}},{"type":"Feature","properties":{"ID":"51","Station Name":"Clark St & Randolph St","Address":"120 W. Randolph St.","Total Docks":"31","Docks in Service":"31","Status":"In Service","Latitude":"41.884576228","Longitude":"-87.63188991","Location":"(41.884576228, -87.63188991)"},"geometry":{"type":"Point","coordinates":[-87.63188991,41.884576228]}},{"type":"Feature","properties":{"ID":"52","Station Name":"Michigan Ave & Lake St","Address":"203 N. Michigan Ave.","Total Docks":"31","Docks in Service":"31","Status":"In Service","Latitude":"41.886024","Longitude":"-87.624117","Location":"(41.886024, -87.624117)"},"geometry":{"type":"Point","coordinates":[-87.624117,41.886024]}},{"type":"Feature","properties":{"ID":"53","Station Name":"Wells St & Erie St","Address":"Wells St & Erie St","Total Docks":"19","Docks in Service":"19","Status":"In Service","Latitude":"41.893832","Longitude":"-87.634195","Location":"(41.893832, -87.634195)"},"geometry":{"type":"Point","coordinates":[-87.634195,41.893832]}},{"type":"Feature","properties":{"ID":"54","Station Name":"Ogden Ave & Chicago Ave","Address":"1040 W. Chicago Ave.","Total Docks":"19","Docks in Service":"19","Status":"In Service","Latitude":"41.896362458","Longitude":"-87.654061273","Location":"(41.896362458, -87.6540612729)"},"geometry":{"type":"Point","coordinates":[-87.654061273,41.896362458]}},{"type":"Feature","properties":{"ID":"55","Station Name":"Halsted St & James M Rochford St","Address":"791 W. James M. Rochford St.","Total Docks":"15","Docks in Service":"15","Status":"In Service","Latitude":"41.865861","Longitude":"-87.646611","Location":"(41.865861, -87.646611)"},"geometry":{"type":"Point","coordinates":[-87.646611,41.865861]}},{"type":"Feature","properties":{"ID":"56","Station Name":"Desplaines St & Kinzie St","Address":"368 N. Desplaines St.","Total Docks":"19","Docks in Service":"19","Status":"In Service","Latitude":"41.888716036","Longitude":"-87.644447853","Location":"(41.888716036, -87.6444478533)"},"geometry":{"type":"Point","coordinates":[-87.644447853,41.888716036]}},{"type":"Feature","properties":{"ID":"57","Station Name":"Clinton St & Roosevelt Rd","Address":"559 W. Roosevelt Rd.","Total Docks":"15","Docks in Service":"15","Status":"In Service","Latitude":"41.867117782","Longitude":"-87.641087959","Location":"(41.8671177825, -87.6410879593)"},"geometry":{"type":"Point","coordinates":[-87.641087959,41.867117782]}},{"type":"Feature","properties":{"ID":"58","Station Name":"Marshfield Ave & Cortland St","Address":"Marshfield Ave & Cortland St","Total Docks":"19","Docks in Service":"19","Status":"In Service","Latitude":"41.916017","Longitude":"-87.668879","Location":"(41.916017, -87.668879)"},"geometry":{"type":"Point","coordinates":[-87.668879,41.916017]}},{"type":"Feature","properties":{"ID":"59","Station Name":"Wabash Ave & Roosevelt Rd","Address":"1210 S. Wabash Ave.","Total Docks":"19","Docks in Service":"19","Status":"In Service","Latitude":"41.867227","Longitude":"-87.625961","Location":"(41.867227, -87.625961)"},"geometry":{"type":"Point","coordinates":[-87.625961,41.867227]}},{"type":"Feature","properties":{"ID":"60","Station Name":"Dayton St & North Ave","Address":"1575 N. Dayton St.","Total Docks":"19","Docks in Service":"19","Status":"In Service","Latitude":"41.910578035","Longitude":"-87.649421929","Location":"(41.9105780349, -87.6494219288)"},"geometry":{"type":"Point","coordinates":[-87.649421929,41.910578035]}},{"type":"Feature","properties":{"ID":"61","Station Name":"Wood St & Milwaukee Ave","Address":"1416 N. Wood","Total Docks":"15","Docks in Service":"15","Status":"In Service","Latitude":"41.907655","Longitude":"-87.672552","Location":"(41.907655, -87.672552)"},"geometry":{"type":"Point","coordinates":[-87.672552,41.907655]}},{"type":"Feature","properties":{"ID":"62","Station Name":"McCormick Place","Address":"2253 S. Dr. Martin Luther King Jr Dr.","Total Docks":"27","Docks in Service":"27","Status":"In Service","Latitude":"41.851375173","Longitude":"-87.618834649","Location":"(41.8513751729, -87.6188346489)"},"geometry":{"type":"Point","coordinates":[-87.618834649,41.851375173]}},{"type":"Feature","properties":{"ID":"66","Station Name":"Clinton St & Lake St","Address":"202 N. Clinton St.","Total Docks":"18","Docks in Service":"18","Status":"In Service","Latitude":"41.885832742","Longitude":"-87.641382315","Location":"(41.8858327415, -87.6413823149)"},"geometry":{"type":"Point","coordinates":[-87.641382315,41.885832742]}},{"type":"Feature","properties":{"ID":"67","Station Name":"Sheffield Ave & Fullerton Ave","Address":"2410 N. Sheffield Ave.","Total Docks":"15","Docks in Service":"15","Status":"In Service","Latitude":"41.925601882","Longitude":"-87.653708042","Location":"(41.9256018819, -87.6537080423)"},"geometry":{"type":"Point","coordinates":[-87.653708042,41.925601882]}},{"type":"Feature","properties":{"ID":"68","Station Name":"Clinton St & Tilden St","Address":"520 W. Tilden","Total Docks":"23","Docks in Service":"23","Status":"In Service","Latitude":"41.875885","Longitude":"-87.640795","Location":"(41.875885, -87.640795)"},"geometry":{"type":"Point","coordinates":[-87.640795,41.875885]}},{"type":"Feature","properties":{"ID":"69","Station Name":"Damen Ave & Pierce Ave","Address":"2002 W. Pierce Ave.","Total Docks":"19","Docks in Service":"19","Status":"In Service","Latitude":"41.909396006","Longitude":"-87.677691929","Location":"(41.9093960065, -87.6776919292)"},"geometry":{"type":"Point","coordinates":[-87.677691929,41.909396006]}},{"type":"Feature","properties":{"ID":"71","Station Name":"Morgan St & Lake St","Address":"1003 W. Lake St.","Total Docks":"15","Docks in Service":"15","Status":"In Service","Latitude":"41.885483308","Longitude":"-87.652304856","Location":"(41.8854833079, -87.6523048564)"},"geometry":{"type":"Point","coordinates":[-87.652304856,41.885483308]}},{"type":"Feature","properties":{"ID":"72","Station Name":"State St & 16th St","Address":"1 W. 16th St.","Total Docks":"15","Docks in Service":"15","Status":"In Service","Latitude":"41.860121377","Longitude":"-87.627729185","Location":"(41.8601213774, -87.6277291853)"},"geometry":{"type":"Point","coordinates":[-87.627729185,41.860121377]}},{"type":"Feature","properties":{"ID":"73","Station Name":"Jefferson St & Monroe St","Address":"207 S. Jefferson St.","Total Docks":"19","Docks in Service":"19","Status":"In Service","Latitude":"41.880422","Longitude":"-87.642746","Location":"(41.880422, -87.642746)"},"geometry":{"type":"Point","coordinates":[-87.642746,41.880422]}},{"type":"Feature","properties":{"ID":"74","Station Name":"Kingsbury St & Erie St","Address":"511 W Erie","Total Docks":"23","Docks in Service":"22","Status":"In Service","Latitude":"41.89384315","Longitude":"-87.64185116","Location":"(41.89384315, -87.64185116)"},"geometry":{"type":"Point","coordinates":[-87.64185116,41.89384315]}},{"type":"Feature","properties":{"ID":"75","Station Name":"Canal St & Jackson Blvd","Address":"510 W. Jackson Blvd.","Total Docks":"35","Docks in Service":"34","Status":"In Service","Latitude":"41.878149","Longitude":"-87.640001","Location":"(41.878149, -87.640001)"},"geometry":{"type":"Point","coordinates":[-87.640001,41.878149]}},{"type":"Feature","properties":{"ID":"76","Station Name":"Lake Shore Dr & Monroe St","Address":"402 E. Monroe St.","Total Docks":"39","Docks in Service":"39","Status":"In Service","Latitude":"41.880958","Longitude":"-87.616743","Location":"(41.880958, -87.616743)"},"geometry":{"type":"Point","coordinates":[-87.616743,41.880958]}},{"type":"Feature","properties":{"ID":"77","Station Name":"Clinton St & Madison St","Address":"8 S. Clinton St.","Total Docks":"23","Docks in Service":"22","Status":"In Service","Latitude":"41.8815824","Longitude":"-87.64127743","Location":"(41.8815824, -87.64127743)"},"geometry":{"type":"Point","coordinates":[-87.64127743,41.8815824]}},{"type":"Feature","properties":{"ID":"80","Station Name":"Aberdeen St & Madison St","Address":"1059 W. Madison St.","Total Docks":"19","Docks in Service":"19","Status":"In Service","Latitude":"41.881487","Longitude":"-87.654752","Location":"(41.881487, -87.654752)"},"geometry":{"type":"Point","coordinates":[-87.654752,41.881487]}},{"type":"Feature","properties":{"ID":"81","Station Name":"Daley Center Plaza","Address":"48 W. Washington St.","Total Docks":"36","Docks in Service":"36","Status":"In Service","Latitude":"41.884451","Longitude":"-87.629892","Location":"(41.884451, -87.629892)"},"geometry":{"type":"Point","coordinates":[-87.629892,41.884451]}},{"type":"Feature","properties":{"ID":"84","Station Name":"Union Ave & Grand Ave","Address":"820 W. Grand Ave.","Total Docks":"19","Docks in Service":"19","Status":"In Service","Latitude":"41.891","Longitude":"-87.645925","Location":"(41.891, -87.645925)"},"geometry":{"type":"Point","coordinates":[-87.645925,41.891]}},{"type":"Feature","properties":{"ID":"85","Station Name":"Michigan Ave & Oak St","Address":"140 E. Oak St.","Total Docks":"23","Docks in Service":"23","Status":"In Service","Latitude":"41.90096039","Longitude":"-87.62377664","Location":"(41.90096039, -87.62377664)"},"geometry":{"type":"Point","coordinates":[-87.62377664,41.90096039]}},{"type":"Feature","properties":{"ID":"86","Station Name":"Eckhart Park","Address":"811 N. Noble St.","Total Docks":"15","Docks in Service":"15","Status":"In Service","Latitude":"41.89637337","Longitude":"-87.66098386","Location":"(41.89637337, -87.66098386)"},"geometry":{"type":"Point","coordinates":[-87.66098386,41.89637337]}},{"type":"Feature","properties":{"ID":"87","Station Name":"Racine Ave & Fullerton Ave","Address":"2411 N. Racine","Total Docks":"19","Docks in Service":"19","Status":"In Service","Latitude":"41.92556258","Longitude":"-87.65840426","Location":"(41.92556258, -87.65840426)"},"geometry":{"type":"Point","coordinates":[-87.65840426,41.92556258]}},{"type":"Feature","properties":{"ID":"88","Station Name":"May St & Randolph St","Address":"1213 W. Washington St.","Total Docks":"15","Docks in Service":"15","Status":"In Service","Latitude":"41.88397","Longitude":"-87.655688","Location":"(41.88397, -87.655688)"},"geometry":{"type":"Point","coordinates":[-87.655688,41.88397]}},{"type":"Feature","properties":{"ID":"90","Station Name":"Millennium Park","Address":"33 S. Michigan Ave.","Total Docks":"35","Docks in Service":"35","Status":"In Service","Latitude":"41.8810317","Longitude":"-87.62408432","Location":"(41.8810317, -87.62408432)"},"geometry":{"type":"Point","coordinates":[-87.62408432,41.8810317]}},{"type":"Feature","properties":{"ID":"91","Station Name":"Clinton St & Washington Blvd","Address":"109 N. Clinton St.","Total Docks":"31","Docks in Service":"29","Status":"In Service","Latitude":"41.88338","Longitude":"-87.64117","Location":"(41.88338, -87.64117)"},"geometry":{"type":"Point","coordinates":[-87.64117,41.88338]}},{"type":"Feature","properties":{"ID":"92","Station Name":"Carpenter St & Huron St","Address":"Carpenter St & Huron St","Total Docks":"19","Docks in Service":"19","Status":"In Service","Latitude":"41.894556","Longitude":"-87.653449","Location":"(41.894556, -87.653449)"},"geometry":{"type":"Point","coordinates":[-87.653449,41.894556]}},{"type":"Feature","properties":{"ID":"93","Station Name":"Sheffield Ave & Willow St","Address":"1740 N. Sheffield Ave.","Total Docks":"15","Docks in Service":"15","Status":"In Service","Latitude":"41.913688","Longitude":"-87.652855","Location":"(41.913688, -87.652855)"},"geometry":{"type":"Point","coordinates":[-87.652855,41.913688]}},{"type":"Feature","properties":{"ID":"94","Station Name":"Clark St & Armitage Ave","Address":"1963 N. Lincoln Ave.","Total Docks":"19","Docks in Service":"19","Status":"In Service","Latitude":"41.918306","Longitude":"-87.636282","Location":"(41.918306, -87.636282)"},"geometry":{"type":"Point","coordinates":[-87.636282,41.918306]}},{"type":"Feature","properties":{"ID":"97","Station Name":"Museum Campus","Address":"Off Street","Total Docks":"35","Docks in Service":"35","Status":"In Service","Latitude":"41.865212","Longitude":"-87.617759","Location":"(41.865212, -87.617759)"},"geometry":{"type":"Point","coordinates":[-87.617759,41.865212]}},{"type":"Feature","properties":{"ID":"98","Station Name":"LaSalle St & Washington St","Address":"LaSalle St & Washington St","Total Docks":"15","Docks in Service":"15","Status":"In Service","Latitude":"41.882664","Longitude":"-87.63253","Location":"(41.882664, -87.63253)"},"geometry":{"type":"Point","coordinates":[-87.63253,41.882664]}},{"type":"Feature","properties":{"ID":"99","Station Name":"Lake Shore Dr & Ohio St","Address":"Lake Shore Dr & Ohio St","Total Docks":"19","Docks in Service":"19","Status":"In Service","Latitude":"41.89257","Longitude":"-87.614492","Location":"(41.89257, -87.614492)"},"geometry":{"type":"Point","coordinates":[-87.614492,41.89257]}},{"type":"Feature","properties":{"ID":"100","Station Name":"Orleans St & Merchandise Mart Plaza","Address":"333 N Orleans st ","Total Docks":"23","Docks in Service":"23","Status":"In Service","Latitude":"41.888243","Longitude":"-87.63639","Location":"(41.888243, -87.63639)"},"geometry":{"type":"Point","coordinates":[-87.63639,41.888243]}},{"type":"Feature","properties":{"ID":"106","Station Name":"State St & Pearson St","Address":"State St & Pearson St","Total Docks":"27","Docks in Service":"27","Status":"In Service","Latitude":"41.897448","Longitude":"-87.628722","Location":"(41.897448, -87.628722)"},"geometry":{"type":"Point","coordinates":[-87.628722,41.897448]}},{"type":"Feature","properties":{"ID":"108","Station Name":"Halsted St & Polk St","Address":"Halsted St & Polk St","Total Docks":"19","Docks in Service":"19","Status":"In Service","Latitude":"41.87184","Longitude":"-87.64664","Location":"(41.87184, -87.64664)"},"geometry":{"type":"Point","coordinates":[-87.64664,41.87184]}},{"type":"Feature","properties":{"ID":"109","Station Name":"900 W Harrison","Address":"Halsted St & Harrison St","Total Docks":"19","Docks in Service":"19","Status":"In Service","Latitude":"41.874675","Longitude":"-87.650019","Location":"(41.874675, -87.650019)"},"geometry":{"type":"Point","coordinates":[-87.650019,41.874675]}},{"type":"Feature","properties":{"ID":"110","Station Name":"State St & Erie St","Address":"State St & Erie St","Total Docks":"23","Docks in Service":"23","Status":"In Service","Latitude":"41.893975","Longitude":"-87.628623","Location":"(41.893975, -87.628623)"},"geometry":{"type":"Point","coordinates":[-87.628623,41.893975]}},{"type":"Feature","properties":{"ID":"111","Station Name":"Sedgwick St & Huron St","Address":"Sedgwick St & Huron St","Total Docks":"19","Docks in Service":"19","Status":"In Service","Latitude":"41.894666","Longitude":"-87.638437","Location":"(41.894666, -87.638437)"},"geometry":{"type":"Point","coordinates":[-87.638437,41.894666]}},{"type":"Feature","properties":{"ID":"112","Station Name":"Green St & Randolph St","Address":"Green St & Randolph St","Total Docks":"15","Docks in Service":"15","Status":"In Service","Latitude":"41.884078","Longitude":"-87.648684","Location":"(41.884078, -87.648684)"},"geometry":{"type":"Point","coordinates":[-87.648684,41.884078]}},{"type":"Feature","properties":{"ID":"113","Station Name":"Bissell St & Armitage Ave","Address":"Bissell St & Armitage Ave","Total Docks":"15","Docks in Service":"15","Status":"In Service","Latitude":"41.91844","Longitude":"-87.65222","Location":"(41.91844, -87.65222)"},"geometry":{"type":"Point","coordinates":[-87.65222,41.91844]}},{"type":"Feature","properties":{"ID":"114","Station Name":"Sheffield Ave & Addison St","Address":"Sheffield Ave & Addison St","Total Docks":"27","Docks in Service":"27","Status":"In Service","Latitude":"41.94688","Longitude":"-87.65445","Location":"(41.94688, -87.65445)"},"geometry":{"type":"Point","coordinates":[-87.65445,41.94688]}},{"type":"Feature","properties":{"ID":"115","Station Name":"Sheffield Ave & Wellington Ave","Address":"Sheffield Ave & Wellington Ave","Total Docks":"23","Docks in Service":"23","Status":"In Service","Latitude":"41.936253","Longitude":"-87.653566","Location":"(41.936253, -87.653566)"},"geometry":{"type":"Point","coordinates":[-87.653566,41.936253]}},{"type":"Feature","properties":{"ID":"116","Station Name":"Western Ave & Winnebago Ave","Address":"Western Ave & Winnebago Ave","Total Docks":"15","Docks in Service":"15","Status":"In Service","Latitude":"41.915533","Longitude":"-87.687051","Location":"(41.915533, -87.687051)"},"geometry":{"type":"Point","coordinates":[-87.687051,41.915533]}},{"type":"Feature","properties":{"ID":"117","Station Name":"Wilton Ave & Belmont Ave","Address":"Wilton Ave & Belmont Ave","Total Docks":"23","Docks in Service":"22","Status":"In Service","Latitude":"41.94018","Longitude":"-87.65304","Location":"(41.94018, -87.65304)"},"geometry":{"type":"Point","coordinates":[-87.65304,41.94018]}},{"type":"Feature","properties":{"ID":"118","Station Name":"Sedgwick St & North Ave","Address":"Sedgwick St & North Ave","Total Docks":"19","Docks in Service":"19","Status":"In Service","Latitude":"41.910579","Longitude":"-87.638618","Location":"(41.910579, -87.638618)"},"geometry":{"type":"Point","coordinates":[-87.638618,41.910579]}},{"type":"Feature","properties":{"ID":"119","Station Name":"Ashland Ave & Lake St","Address":"Ashland Ave & Lake St","Total Docks":"19","Docks in Service":"19","Status":"In Service","Latitude":"41.88541","Longitude":"-87.66732","Location":"(41.88541, -87.66732)"},"geometry":{"type":"Point","coordinates":[-87.66732,41.88541]}},{"type":"Feature","properties":{"ID":"120","Station Name":"Wentworth Ave & Archer Ave","Address":"Wentworth Ave & Archer Ave","Total Docks":"15","Docks in Service":"15","Status":"In Service","Latitude":"41.854564","Longitude":"-87.631937","Location":"(41.854564, -87.631937)"},"geometry":{"type":"Point","coordinates":[-87.631937,41.854564]}},{"type":"Feature","properties":{"ID":"121","Station Name":"Blackstone Ave & Hyde Park Blvd","Address":"Hyde Park","Total Docks":"15","Docks in Service":"15","Status":"In Service","Latitude":"41.802562","Longitude":"-87.590368","Location":"(41.802562, -87.590368)"},"geometry":{"type":"Point","coordinates":[-87.590368,41.802562]}},{"type":"Feature","properties":{"ID":"122","Station Name":"Ogden Ave & Congress Pkwy","Address":"Ogden Ave & Congress Pkwy","Total Docks":"15","Docks in Service":"15","Status":"In Service","Latitude":"41.87501","Longitude":"-87.67328","Location":"(41.87501, -87.67328)"},"geometry":{"type":"Point","coordinates":[-87.67328,41.87501]}},{"type":"Feature","properties":{"ID":"123","Station Name":"California Ave & Milwaukee Ave","Address":"California Ave & Milwaukee Ave","Total Docks":"15","Docks in Service":"15","Status":"In Service","Latitude":"41.922695","Longitude":"-87.697153","Location":"(41.922695, -87.697153)"},"geometry":{"type":"Point","coordinates":[-87.697153,41.922695]}},{"type":"Feature","properties":{"ID":"124","Station Name":"Damen Ave & Cullerton St","Address":"Damen Ave & Cullerton St","Total Docks":"15","Docks in Service":"15","Status":"In Service","Latitude":"41.855048","Longitude":"-87.675726","Location":"(41.855048, -87.675726)"},"geometry":{"type":"Point","coordinates":[-87.675726,41.855048]}},{"type":"Feature","properties":{"ID":"126","Station Name":"Clark St & North Ave","Address":"Clark St & North Ave","Total Docks":"15","Docks in Service":"15","Status":"In Service","Latitude":"41.911974","Longitude":"-87.631942","Location":"(41.911974, -87.631942)"},"geometry":{"type":"Point","coordinates":[-87.631942,41.911974]}},{"type":"Feature","properties":{"ID":"127","Station Name":"Lincoln Ave & Fullerton Ave","Address":"Lincoln Ave & Fullerton Ave","Total Docks":"15","Docks in Service":"15","Status":"In Service","Latitude":"41.925905","Longitude":"-87.64926","Location":"(41.925905, -87.64926)"},"geometry":{"type":"Point","coordinates":[-87.64926,41.925905]}},{"type":"Feature","properties":{"ID":"128","Station Name":"Damen Ave & Chicago Ave","Address":"Damen Ave & Chicago Ave","Total Docks":"15","Docks in Service":"15","Status":"In Service","Latitude":"41.895769","Longitude":"-87.67722","Location":"(41.895769, -87.67722)"},"geometry":{"type":"Point","coordinates":[-87.67722,41.895769]}},{"type":"Feature","properties":{"ID":"129","Station Name":"Blue Island Ave & 18th St","Address":"Blue Island Ave & 18th St","Total Docks":"15","Docks in Service":"14","Status":"In Service","Latitude":"41.857556","Longitude":"-87.661535","Location":"(41.857556, -87.661535)"},"geometry":{"type":"Point","coordinates":[-87.661535,41.857556]}},{"type":"Feature","properties":{"ID":"130","Station Name":"Damen Ave & Division St","Address":"Damen Ave & Division St","Total Docks":"15","Docks in Service":"15","Status":"In Service","Latitude":"41.90331","Longitude":"-87.67695","Location":"(41.90331, -87.67695)"},"geometry":{"type":"Point","coordinates":[-87.67695,41.90331]}},{"type":"Feature","properties":{"ID":"131","Station Name":"Lincoln Ave & Belmont Ave","Address":"Lincoln Ave & Belmont Ave","Total Docks":"15","Docks in Service":"15","Status":"In Service","Latitude":"41.939365","Longitude":"-87.668385","Location":"(41.939365, -87.668385)"},"geometry":{"type":"Point","coordinates":[-87.668385,41.939365]}},{"type":"Feature","properties":{"ID":"132","Station Name":"Wentworth Ave & 24th St","Address":"Wentworth Ave & 24th St","Total Docks":"15","Docks in Service":"15","Status":"In Service","Latitude":"41.849237","Longitude":"-87.631715","Location":"(41.849237, -87.631715)"},"geometry":{"type":"Point","coordinates":[-87.631715,41.849237]}},{"type":"Feature","properties":{"ID":"134","Station Name":"Peoria St & Jackson Blvd","Address":"Peoria St & Jackson Blvd","Total Docks":"19","Docks in Service":"19","Status":"In Service","Latitude":"41.877749","Longitude":"-87.649633","Location":"(41.877749, -87.649633)"},"geometry":{"type":"Point","coordinates":[-87.649633,41.877749]}},{"type":"Feature","properties":{"ID":"135","Station Name":"Halsted St & 21st St","Address":"Halsted St & 21st St","Total Docks":"11","Docks in Service":"11","Status":"In Service","Latitude":"41.85378","Longitude":"-87.64665","Location":"(41.85378, -87.64665)"},"geometry":{"type":"Point","coordinates":[-87.64665,41.85378]}},{"type":"Feature","properties":{"ID":"136","Station Name":"Racine Ave & 13th St","Address":"Racine Ave & 13th St","Total Docks":"15","Docks in Service":"15","Status":"In Service","Latitude":"41.865054","Longitude":"-87.656959","Location":"(41.865054, -87.656959)"},"geometry":{"type":"Point","coordinates":[-87.656959,41.865054]}},{"type":"Feature","properties":{"ID":"137","Station Name":"Morgan Ave & 14th Pl","Address":"Morgan Ave & 14th Pl","Total Docks":"15","Docks in Service":"15","Status":"In Service","Latitude":"41.862378","Longitude":"-87.651062","Location":"(41.862378, -87.651062)"},"geometry":{"type":"Point","coordinates":[-87.651062,41.862378]}},{"type":"Feature","properties":{"ID":"138","Station Name":"Clybourn Ave & Division St","Address":"Clybourn Ave & Division St","Total Docks":"15","Docks in Service":"15","Status":"In Service","Latitude":"41.904509","Longitude":"-87.6405","Location":"(41.904509, -87.6405)"},"geometry":{"type":"Point","coordinates":[-87.6405,41.904509]}},{"type":"Feature","properties":{"ID":"140","Station Name":"Dearborn Pkwy & Delaware Pl","Address":"Dearborn Pkwy & Delaware Pl","Total Docks":"19","Docks in Service":"19","Status":"In Service","Latitude":"41.899007","Longitude":"-87.629928","Location":"(41.899007, -87.629928)"},"geometry":{"type":"Point","coordinates":[-87.629928,41.899007]}},{"type":"Feature","properties":{"ID":"141","Station Name":"Clark St & Lincoln Ave","Address":"Clark St & Lincoln Ave","Total Docks":"23","Docks in Service":"23","Status":"In Service","Latitude":"41.915689","Longitude":"-87.6346","Location":"(41.915689, -87.6346)"},"geometry":{"type":"Point","coordinates":[-87.6346,41.915689]}},{"type":"Feature","properties":{"ID":"143","Station Name":"Sedgwick St & Webster Ave","Address":"Sedgwick St & Webster Ave","Total Docks":"15","Docks in Service":"15","Status":"In Service","Latitude":"41.922167","Longitude":"-87.638888","Location":"(41.922167, -87.638888)"},"geometry":{"type":"Point","coordinates":[-87.638888,41.922167]}},{"type":"Feature","properties":{"ID":"144","Station Name":"Larrabee St & Webster Ave","Address":"Larrabee St & Webster Ave","Total Docks":"15","Docks in Service":"15","Status":"In Service","Latitude":"41.92175","Longitude":"-87.64401","Location":"(41.92175, -87.64401)"},"geometry":{"type":"Point","coordinates":[-87.64401,41.92175]}},{"type":"Feature","properties":{"ID":"146","Station Name":"Loomis St & Jackson Blvd","Address":"Loomis St & Jackson Blvd","Total Docks":"11","Docks in Service":"11","Status":"In Service","Latitude":"41.877945","Longitude":"-87.662007","Location":"(41.877945, -87.662007)"},"geometry":{"type":"Point","coordinates":[-87.662007,41.877945]}},{"type":"Feature","properties":{"ID":"147","Station Name":"Indiana Ave & 26th St","Address":"Indiana Ave & 26th St","Total Docks":"15","Docks in Service":"15","Status":"In Service","Latitude":"41.8457","Longitude":"-87.62248","Location":"(41.8457, -87.62248)"},"geometry":{"type":"Point","coordinates":[-87.62248,41.8457]}},{"type":"Feature","properties":{"ID":"148","Station Name":"State St & 33rd St","Address":"State St & 33rd St","Total Docks":"11","Docks in Service":"11","Status":"In Service","Latitude":"41.834734","Longitude":"-87.625813","Location":"(41.834734, -87.625813)"},"geometry":{"type":"Point","coordinates":[-87.625813,41.834734]}},{"type":"Feature","properties":{"ID":"149","Station Name":"Calumet Ave & 33rd St","Address":"Calumet Ave & 33rd St","Total Docks":"11","Docks in Service":"11","Status":"In Service","Latitude":"41.8349","Longitude":"-87.61793","Location":"(41.8349, -87.61793)"},"geometry":{"type":"Point","coordinates":[-87.61793,41.8349]}},{"type":"Feature","properties":{"ID":"150","Station Name":"Fort Dearborn Dr & 31st St","Address":"Fort Dearborn Dr & 31st St","Total Docks":"15","Docks in Service":"15","Status":"In Service","Latitude":"41.838556","Longitude":"-87.608218","Location":"(41.838556, -87.608218)"},"geometry":{"type":"Point","coordinates":[-87.608218,41.838556]}},{"type":"Feature","properties":{"ID":"152","Station Name":"Lincoln Ave & Diversey Pkwy","Address":"Lincoln Ave & Diversey Pkwy","Total Docks":"15","Docks in Service":"15","Status":"In Service","Latitude":"41.932225","Longitude":"-87.658617","Location":"(41.932225, -87.658617)"},"geometry":{"type":"Point","coordinates":[-87.658617,41.932225]}},{"type":"Feature","properties":{"ID":"153","Station Name":"Southport Ave & Wellington Ave","Address":"Southport Ave & Wellington Ave","Total Docks":"19","Docks in Service":"19","Status":"In Service","Latitude":"41.935733","Longitude":"-87.663576","Location":"(41.935733, -87.663576)"},"geometry":{"type":"Point","coordinates":[-87.663576,41.935733]}},{"type":"Feature","properties":{"ID":"154","Station Name":"Southport Ave & Belmont Ave","Address":"Southport Ave & Belmont Ave","Total Docks":"15","Docks in Service":"15","Status":"In Service","Latitude":"41.93949","Longitude":"-87.66378","Location":"(41.93949, -87.66378)"},"geometry":{"type":"Point","coordinates":[-87.66378,41.93949]}},{"type":"Feature","properties":{"ID":"156","Station Name":"Clark St & Wellington Ave","Address":"Clark St & Wellington Ave","Total Docks":"15","Docks in Service":"15","Status":"In Service","Latitude":"41.936496822","Longitude":"-87.647538658","Location":"(41.9364968219, -87.6475386582)"},"geometry":{"type":"Point","coordinates":[-87.647538658,41.936496822]}},{"type":"Feature","properties":{"ID":"157","Station Name":"Lake Shore Dr & Wellington Ave","Address":"Lake Shore Dr & Wellington Ave","Total Docks":"13","Docks in Service":"13","Status":"In Service","Latitude":"41.936669","Longitude":"-87.636794","Location":"(41.936669, -87.636794)"},"geometry":{"type":"Point","coordinates":[-87.636794,41.936669]}},{"type":"Feature","properties":{"ID":"158","Station Name":"Milwaukee Ave & Wabansia Ave","Address":"Milwaukee Ave & Wabansia Ave","Total Docks":"15","Docks in Service":"15","Status":"In Service","Latitude":"41.912616","Longitude":"-87.681391","Location":"(41.912616, -87.681391)"},"geometry":{"type":"Point","coordinates":[-87.681391,41.912616]}},{"type":"Feature","properties":{"ID":"159","Station Name":"Claremont Ave & Hirsch St","Address":"1451 N Claremont Ave","Total Docks":"11","Docks in Service":"11","Status":"In Service","Latitude":"41.907781","Longitude":"-87.685854","Location":"(41.907781, -87.685854)"},"geometry":{"type":"Point","coordinates":[-87.685854,41.907781]}},{"type":"Feature","properties":{"ID":"160","Station Name":"Campbell Ave & North Ave","Address":"Campbell Ave & North Ave","Total Docks":"15","Docks in Service":"15","Status":"In Service","Latitude":"41.910535","Longitude":"-87.689556","Location":"(41.910535, -87.689556)"},"geometry":{"type":"Point","coordinates":[-87.689556,41.910535]}},{"type":"Feature","properties":{"ID":"162","Station Name":"Damen Ave & Wellington Ave","Address":"Damen Ave & Wellington Ave","Total Docks":"15","Docks in Service":"15","Status":"In Service","Latitude":"41.93588","Longitude":"-87.67842","Location":"(41.93588, -87.67842)"},"geometry":{"type":"Point","coordinates":[-87.67842,41.93588]}},{"type":"Feature","properties":{"ID":"163","Station Name":"Damen Ave & Clybourn Ave","Address":"Damen Ave & Clybourn Ave","Total Docks":"15","Docks in Service":"15","Status":"In Service","Latitude":"41.931931","Longitude":"-87.677856","Location":"(41.931931, -87.677856)"},"geometry":{"type":"Point","coordinates":[-87.677856,41.931931]}},{"type":"Feature","properties":{"ID":"164","Station Name":"Franklin St & Lake St","Address":"Franklin St & Lake St","Total Docks":"23","Docks in Service":"23","Status":"In Service","Latitude":"41.885837","Longitude":"-87.6355","Location":"(41.885837, -87.6355)"},"geometry":{"type":"Point","coordinates":[-87.6355,41.885837]}},{"type":"Feature","properties":{"ID":"165","Station Name":"Clark St & Grace St","Address":"Clark St & Grace St","Total Docks":"19","Docks in Service":"19","Status":"In Service","Latitude":"41.95078","Longitude":"-87.659172","Location":"(41.95078, -87.659172)"},"geometry":{"type":"Point","coordinates":[-87.659172,41.95078]}},{"type":"Feature","properties":{"ID":"166","Station Name":"Ashland Ave & Wrightwood Ave","Address":"Ashland Ave & Wrightwood Ave","Total Docks":"15","Docks in Service":"15","Status":"In Service","Latitude":"41.92883","Longitude":"-87.668507","Location":"(41.92883, -87.668507)"},"geometry":{"type":"Point","coordinates":[-87.668507,41.92883]}},{"type":"Feature","properties":{"ID":"167","Station Name":"Damen Ave & Coulter St","Address":"Damen Ave & Coulter St","Total Docks":"11","Docks in Service":"11","Status":"In Service","Latitude":"41.8492","Longitude":"-87.67564","Location":"(41.8492, -87.67564)"},"geometry":{"type":"Point","coordinates":[-87.67564,41.8492]}},{"type":"Feature","properties":{"ID":"168","Station Name":"Michigan Ave & 14th St","Address":"Michigan Ave & 14th St","Total Docks":"19","Docks in Service":"19","Status":"In Service","Latitude":"41.864059","Longitude":"-87.623727","Location":"(41.864059, -87.623727)"},"geometry":{"type":"Point","coordinates":[-87.623727,41.864059]}},{"type":"Feature","properties":{"ID":"169","Station Name":"Canal St & Harrison St","Address":"Canal St & Harrison St","Total Docks":"15","Docks in Service":"15","Status":"In Service","Latitude":"41.874337","Longitude":"-87.639566","Location":"(41.874337, -87.639566)"},"geometry":{"type":"Point","coordinates":[-87.639566,41.874337]}},{"type":"Feature","properties":{"ID":"170","Station Name":"Clinton St & 18th St","Address":"Clinton St & 18th St","Total Docks":"15","Docks in Service":"15","Status":"In Service","Latitude":"41.85795","Longitude":"-87.640826","Location":"(41.85795, -87.640826)"},"geometry":{"type":"Point","coordinates":[-87.640826,41.85795]}},{"type":"Feature","properties":{"ID":"171","Station Name":"May St & Cullerton St","Address":"May St & Cullerton St","Total Docks":"11","Docks in Service":"11","Status":"In Service","Latitude":"41.855136","Longitude":"-87.654127","Location":"(41.855136, -87.654127)"},"geometry":{"type":"Point","coordinates":[-87.654127,41.855136]}},{"type":"Feature","properties":{"ID":"173","Station Name":"Mies van der Rohe Way & Chicago Ave","Address":"Mies van der Rohe Way & Chicago Ave","Total Docks":"15","Docks in Service":"15","Status":"In Service","Latitude":"41.89691","Longitude":"-87.621743","Location":"(41.89691, -87.621743)"},"geometry":{"type":"Point","coordinates":[-87.621743,41.89691]}},{"type":"Feature","properties":{"ID":"174","Station Name":"Canal St & Madison St","Address":"Canal St & Madison St","Total Docks":"23","Docks in Service":"23","Status":"In Service","Latitude":"41.882091","Longitude":"-87.639833","Location":"(41.882091, -87.639833)"},"geometry":{"type":"Point","coordinates":[-87.639833,41.882091]}},{"type":"Feature","properties":{"ID":"175","Station Name":"Wells St & Polk St","Address":"Wells St & Polk St","Total Docks":"19","Docks in Service":"19","Status":"In Service","Latitude":"41.872373","Longitude":"-87.633523","Location":"(41.872373, -87.633523)"},"geometry":{"type":"Point","coordinates":[-87.633523,41.872373]}},{"type":"Feature","properties":{"ID":"176","Station Name":"Clark St & Elm St","Address":"Clark St & Elm St","Total Docks":"19","Docks in Service":"19","Status":"In Service","Latitude":"41.903233","Longitude":"-87.631253","Location":"(41.903233, -87.631253)"},"geometry":{"type":"Point","coordinates":[-87.631253,41.903233]}},{"type":"Feature","properties":{"ID":"177","Station Name":"Theater on the Lake","Address":"Theater on the Lake","Total Docks":"23","Docks in Service":"23","Status":"In Service","Latitude":"41.926277","Longitude":"-87.630834","Location":"(41.926277, -87.630834)"},"geometry":{"type":"Point","coordinates":[-87.630834,41.926277]}},{"type":"Feature","properties":{"ID":"178","Station Name":"State St & 19th St","Address":"State St & 19th St","Total Docks":"15","Docks in Service":"15","Status":"In Service","Latitude":"41.856594","Longitude":"-87.627542","Location":"(41.856594, -87.627542)"},"geometry":{"type":"Point","coordinates":[-87.627542,41.856594]}},{"type":"Feature","properties":{"ID":"179","Station Name":"MLK Jr Dr & Oakwood Blvd","Address":"Off Steet","Total Docks":"15","Docks in Service":"15","Status":"In Service","Latitude":"41.82256","Longitude":"-87.61615","Location":"(41.82256, -87.61615)"},"geometry":{"type":"Point","coordinates":[-87.61615,41.82256]}},{"type":"Feature","properties":{"ID":"181","Station Name":"LaSalle St & Illinois St","Address":"On Street","Total Docks":"31","Docks in Service":"31","Status":"In Service","Latitude":"41.890749","Longitude":"-87.63206","Location":"(41.890749, -87.63206)"},"geometry":{"type":"Point","coordinates":[-87.63206,41.890749]}},{"type":"Feature","properties":{"ID":"183","Station Name":"Damen Ave & Augusta Blvd","Address":"Damen Ave & Augusta Blvd","Total Docks":"15","Docks in Service":"15","Status":"In Service","Latitude":"41.899714","Longitude":"-87.677234","Location":"(41.899714, -87.677234)"},"geometry":{"type":"Point","coordinates":[-87.677234,41.899714]}},{"type":"Feature","properties":{"ID":"184","Station Name":"State St & 35th St","Address":"State St & 35th St","Total Docks":"19","Docks in Service":"19","Status":"In Service","Latitude":"41.83104","Longitude":"-87.62688","Location":"(41.83104, -87.62688)"},"geometry":{"type":"Point","coordinates":[-87.62688,41.83104]}},{"type":"Feature","properties":{"ID":"185","Station Name":"Stave St & Armitage Ave","Address":"Stave St & Armitage Ave","Total Docks":"11","Docks in Service":"11","Status":"In Service","Latitude":"41.917741","Longitude":"-87.691392","Location":"(41.917741, -87.691392)"},"geometry":{"type":"Point","coordinates":[-87.691392,41.917741]}},{"type":"Feature","properties":{"ID":"186","Station Name":"Ogden Ave & Race Ave","Address":"Ogden Ave & Race Ave","Total Docks":"15","Docks in Service":"15","Status":"In Service","Latitude":"41.891795","Longitude":"-87.658751","Location":"(41.891795, -87.658751)"},"geometry":{"type":"Point","coordinates":[-87.658751,41.891795]}},{"type":"Feature","properties":{"ID":"188","Station Name":"Greenview Ave & Fullerton Ave","Address":"Greenview Ave & Fullerton Ave","Total Docks":"15","Docks in Service":"15","Status":"In Service","Latitude":"41.92533","Longitude":"-87.6658","Location":"(41.92533, -87.6658)"},"geometry":{"type":"Point","coordinates":[-87.6658,41.92533]}},{"type":"Feature","properties":{"ID":"190","Station Name":"Southport Ave & Wrightwood Ave","Address":"Southport Ave & Wrightwood Ave","Total Docks":"15","Docks in Service":"15","Status":"In Service","Latitude":"41.92888","Longitude":"-87.66317","Location":"(41.92888, -87.66317)"},"geometry":{"type":"Point","coordinates":[-87.66317,41.92888]}},{"type":"Feature","properties":{"ID":"191","Station Name":"Canal St & Monroe St","Address":"Canal St & Monroe St","Total Docks":"23","Docks in Service":"23","Status":"In Service","Latitude":"41.8807","Longitude":"-87.63947","Location":"(41.8807, -87.63947)"},"geometry":{"type":"Point","coordinates":[-87.63947,41.8807]}},{"type":"Feature","properties":{"ID":"192","Station Name":"Canal St & Adams St","Address":"Canal St & Adams St","Total Docks":"35","Docks in Service":"35","Status":"In Service","Latitude":"41.879255","Longitude":"-87.639904","Location":"(41.879255, -87.639904)"},"geometry":{"type":"Point","coordinates":[-87.639904,41.879255]}},{"type":"Feature","properties":{"ID":"193","Station Name":"State St & 29th St","Address":"State St & 29th St","Total Docks":"15","Docks in Service":"15","Status":"In Service","Latitude":"41.841707","Longitude":"-87.626938","Location":"(41.841707, -87.626938)"},"geometry":{"type":"Point","coordinates":[-87.626938,41.841707]}},{"type":"Feature","properties":{"ID":"194","Station Name":"Wabash Ave & Wacker Pl","Address":"Wabash Ave & Wacker Pl","Total Docks":"19","Docks in Service":"19","Status":"In Service","Latitude":"41.886875","Longitude":"-87.62603","Location":"(41.886875, -87.62603)"},"geometry":{"type":"Point","coordinates":[-87.62603,41.886875]}},{"type":"Feature","properties":{"ID":"195","Station Name":"Columbus Dr & Randolph St","Address":"Columbus Dr & Randolph St","Total Docks":"31","Docks in Service":"31","Status":"In Service","Latitude":"41.884728","Longitude":"-87.619521","Location":"(41.884728, -87.619521)"},"geometry":{"type":"Point","coordinates":[-87.619521,41.884728]}},{"type":"Feature","properties":{"ID":"196","Station Name":"Cityfront Plaza Dr & Pioneer Ct","Address":"Off Street","Total Docks":"19","Docks in Service":"19","Status":"In Service","Latitude":"41.890252","Longitude":"-87.622105","Location":"(41.890252, -87.622105)"},"geometry":{"type":"Point","coordinates":[-87.622105,41.890252]}},{"type":"Feature","properties":{"ID":"197","Station Name":"Michigan Ave & Madison St","Address":"Michigan Ave & Madison St","Total Docks":"19","Docks in Service":"18","Status":"In Service","Latitude":"41.882134","Longitude":"-87.625125","Location":"(41.882134, -87.625125)"},"geometry":{"type":"Point","coordinates":[-87.625125,41.882134]}},{"type":"Feature","properties":{"ID":"198","Station Name":"Halsted St & Madison St","Address":"Halsted St & Madison St","Total Docks":"19","Docks in Service":"19","Status":"In Service","Latitude":"41.88175","Longitude":"-87.6478","Location":"(41.88175, -87.6478)"},"geometry":{"type":"Point","coordinates":[-87.6478,41.88175]}},{"type":"Feature","properties":{"ID":"199","Station Name":"Wabash Ave & Grand Ave","Address":"Wabash Ave & Grand Ave","Total Docks":"15","Docks in Service":"15","Status":"In Service","Latitude":"41.891738","Longitude":"-87.626937","Location":"(41.891738, -87.626937)"},"geometry":{"type":"Point","coordinates":[-87.626937,41.891738]}},{"type":"Feature","properties":{"ID":"200","Station Name":"MLK Jr Dr & 47th St","Address":"MLK Jr Dr & 47th St","Total Docks":"11","Docks in Service":"11","Status":"In Service","Latitude":"41.809851","Longitude":"-87.616279","Location":"(41.809851, -87.616279)"},"geometry":{"type":"Point","coordinates":[-87.616279,41.809851]}},{"type":"Feature","properties":{"ID":"201","Station Name":"Indiana Ave & 40th St","Address":"Indiana Ave & 40th St","Total Docks":"11","Docks in Service":"11","Status":"In Service","Latitude":"41.82168","Longitude":"-87.6216","Location":"(41.82168, -87.6216)"},"geometry":{"type":"Point","coordinates":[-87.6216,41.82168]}},{"type":"Feature","properties":{"ID":"202","Station Name":"Halsted St & 18th St","Address":"Halsted St & 18th St","Total Docks":"15","Docks in Service":"15","Status":"In Service","Latitude":"41.857499","Longitude":"-87.646277","Location":"(41.857499, -87.646277)"},"geometry":{"type":"Point","coordinates":[-87.646277,41.857499]}},{"type":"Feature","properties":{"ID":"203","Station Name":"Western Ave & 21st St","Address":"Western Ave & 21st St","Total Docks":"15","Docks in Service":"15","Status":"In Service","Latitude":"41.85394","Longitude":"-87.685243","Location":"(41.85394, -87.685243)"},"geometry":{"type":"Point","coordinates":[-87.685243,41.85394]}},{"type":"Feature","properties":{"ID":"204","Station Name":"Prairie Ave & Garfield Blvd","Address":"Prairie Ave & Garfield Blvd","Total Docks":"15","Docks in Service":"15","Status":"In Service","Latitude":"41.794853","Longitude":"-87.618691","Location":"(41.794853, -87.618691)"},"geometry":{"type":"Point","coordinates":[-87.618691,41.794853]}},{"type":"Feature","properties":{"ID":"205","Station Name":"Paulina St & 18th St","Address":"Paulina St & 18th St","Total Docks":"15","Docks in Service":"15","Status":"In Service","Latitude":"41.857901","Longitude":"-87.668745","Location":"(41.857901, -87.668745)"},"geometry":{"type":"Point","coordinates":[-87.668745,41.857901]}},{"type":"Feature","properties":{"ID":"206","Station Name":"Halsted St & Archer Ave","Address":"Halsted St & Archer Ave","Total Docks":"15","Docks in Service":"15","Status":"In Service","Latitude":"41.847203","Longitude":"-87.646795","Location":"(41.847203, -87.646795)"},"geometry":{"type":"Point","coordinates":[-87.646795,41.847203]}},{"type":"Feature","properties":{"ID":"207","Station Name":"Emerald Ave & 28th St","Address":"Emerald Ave & 28th St","Total Docks":"15","Docks in Service":"15","Status":"In Service","Latitude":"41.84358","Longitude":"-87.645368","Location":"(41.84358, -87.645368)"},"geometry":{"type":"Point","coordinates":[-87.645368,41.84358]}},{"type":"Feature","properties":{"ID":"208","Station Name":"Ashland Ave & 21st St","Address":"Ashland Ave & 21st St","Total Docks":"15","Docks in Service":"15","Status":"In Service","Latitude":"41.85381","Longitude":"-87.665897","Location":"(41.85381, -87.665897)"},"geometry":{"type":"Point","coordinates":[-87.665897,41.85381]}},{"type":"Feature","properties":{"ID":"209","Station Name":"Normal Ave & Archer Ave","Address":"Normal Ave & Archer Ave","Total Docks":"11","Docks in Service":"11","Status":"In Service","Latitude":"41.849527","Longitude":"-87.640591","Location":"(41.849527, -87.640591)"},"geometry":{"type":"Point","coordinates":[-87.640591,41.849527]}},{"type":"Feature","properties":{"ID":"210","Station Name":"Ashland Ave & Division St","Address":"Ashland Ave & Division St","Total Docks":"19","Docks in Service":"19","Status":"In Service","Latitude":"41.90345","Longitude":"-87.667747","Location":"(41.90345, -87.667747)"},"geometry":{"type":"Point","coordinates":[-87.667747,41.90345]}},{"type":"Feature","properties":{"ID":"211","Station Name":"St Clair St & Erie St","Address":"St Clair St & Erie St","Total Docks":"19","Docks in Service":"19","Status":"In Service","Latitude":"41.894448","Longitude":"-87.622663","Location":"(41.894448, -87.622663)"},"geometry":{"type":"Point","coordinates":[-87.622663,41.894448]}},{"type":"Feature","properties":{"ID":"212","Station Name":"Wells St & Hubbard St","Address":"Wells St & Hubbard St","Total Docks":"31","Docks in Service":"30","Status":"In Service","Latitude":"41.889933","Longitude":"-87.634262","Location":"(41.889933, -87.634262)"},"geometry":{"type":"Point","coordinates":[-87.634262,41.889933]}},{"type":"Feature","properties":{"ID":"213","Station Name":"Leavitt St & North Ave","Address":"Leavitt St & North Ave","Total Docks":"15","Docks in Service":"15","Status":"In Service","Latitude":"41.910153","Longitude":"-87.68229","Location":"(41.910153, -87.68229)"},"geometry":{"type":"Point","coordinates":[-87.68229,41.910153]}},{"type":"Feature","properties":{"ID":"214","Station Name":"Damen Ave & Grand Ave","Address":"Damen Ave & Grand Ave","Total Docks":"15","Docks in Service":"15","Status":"In Service","Latitude":"41.89122","Longitude":"-87.67686","Location":"(41.89122, -87.67686)"},"geometry":{"type":"Point","coordinates":[-87.67686,41.89122]}},{"type":"Feature","properties":{"ID":"215","Station Name":"Damen Ave & Madison St","Address":"Damen Ave & Madison St","Total Docks":"15","Docks in Service":"15","Status":"In Service","Latitude":"41.88137","Longitude":"-87.67493","Location":"(41.88137, -87.67493)"},"geometry":{"type":"Point","coordinates":[-87.67493,41.88137]}},{"type":"Feature","properties":{"ID":"216","Station Name":"California Ave & Division St","Address":"California Ave & Division St","Total Docks":"15","Docks in Service":"15","Status":"In Service","Latitude":"41.903029","Longitude":"-87.697474","Location":"(41.903029, -87.697474)"},"geometry":{"type":"Point","coordinates":[-87.697474,41.903029]}},{"type":"Feature","properties":{"ID":"217","Station Name":"May St & Fulton St","Address":"May St & Fulton St","Total Docks":"15","Docks in Service":"15","Status":"In Service","Latitude":"41.886773","Longitude":"-87.656001","Location":"(41.886773, -87.656001)"},"geometry":{"type":"Point","coordinates":[-87.656001,41.886773]}},{"type":"Feature","properties":{"ID":"218","Station Name":"Wells St & 19th St","Address":"Wells St & 19th St","Total Docks":"11","Docks in Service":"11","Status":"In Service","Latitude":"41.856802","Longitude":"-87.633879","Location":"(41.856802, -87.633879)"},"geometry":{"type":"Point","coordinates":[-87.633879,41.856802]}},{"type":"Feature","properties":{"ID":"219","Station Name":"Damen Ave & Cortland St","Address":"Damen Ave & Cortland St","Total Docks":"11","Docks in Service":"11","Status":"In Service","Latitude":"41.916027","Longitude":"-87.677411","Location":"(41.916027, -87.677411)"},"geometry":{"type":"Point","coordinates":[-87.677411,41.916027]}},{"type":"Feature","properties":{"ID":"220","Station Name":"Hampden Ct & Diversey Pkwy","Address":"Hampden Ct & Diversey Pkwy","Total Docks":"19","Docks in Service":"19","Status":"In Service","Latitude":"41.93262","Longitude":"-87.642385","Location":"(41.93262, -87.642385)"},"geometry":{"type":"Point","coordinates":[-87.642385,41.93262]}},{"type":"Feature","properties":{"ID":"222","Station Name":"Milwaukee Ave & Rockwell St","Address":"Milwaukee Ave & Rockwell St","Total Docks":"19","Docks in Service":"19","Status":"In Service","Latitude":"41.920195","Longitude":"-87.693033","Location":"(41.920195, -87.693033)"},"geometry":{"type":"Point","coordinates":[-87.693033,41.920195]}},{"type":"Feature","properties":{"ID":"223","Station Name":"Clifton Ave & Armitage Ave","Address":"Clifton Ave & Armitage Ave","Total Docks":"15","Docks in Service":"15","Status":"In Service","Latitude":"41.918216","Longitude":"-87.656936","Location":"(41.918216, -87.656936)"},"geometry":{"type":"Point","coordinates":[-87.656936,41.918216]}},{"type":"Feature","properties":{"ID":"224","Station Name":"Halsted St & Willow St","Address":"Halsted St & Willow St","Total Docks":"19","Docks in Service":"19","Status":"In Service","Latitude":"41.913778","Longitude":"-87.64884","Location":"(41.913778, -87.64884)"},"geometry":{"type":"Point","coordinates":[-87.64884,41.913778]}},{"type":"Feature","properties":{"ID":"225","Station Name":"Halsted St & Dickens Ave","Address":"Halsted St & Dickens Ave","Total Docks":"15","Docks in Service":"15","Status":"In Service","Latitude":"41.919936","Longitude":"-87.64883","Location":"(41.919936, -87.64883)"},"geometry":{"type":"Point","coordinates":[-87.64883,41.919936]}},{"type":"Feature","properties":{"ID":"226","Station Name":"Racine Ave & Belmont Ave","Address":"Racine Ave & Belmont Ave","Total Docks":"15","Docks in Service":"14","Status":"In Service","Latitude":"41.939743","Longitude":"-87.658865","Location":"(41.939743, -87.658865)"},"geometry":{"type":"Point","coordinates":[-87.658865,41.939743]}},{"type":"Feature","properties":{"ID":"227","Station Name":"Southport Ave & Waveland Ave","Address":"Southport Ave & Waveland Ave","Total Docks":"15","Docks in Service":"15","Status":"In Service","Latitude":"41.94815","Longitude":"-87.66394","Location":"(41.94815, -87.66394)"},"geometry":{"type":"Point","coordinates":[-87.66394,41.94815]}},{"type":"Feature","properties":{"ID":"228","Station Name":"Damen Ave & Melrose Ave","Address":"Damen Ave & Melrose Ave","Total Docks":"11","Docks in Service":"11","Status":"In Service","Latitude":"41.9406","Longitude":"-87.6785","Location":"(41.9406, -87.6785)"},"geometry":{"type":"Point","coordinates":[-87.6785,41.9406]}},{"type":"Feature","properties":{"ID":"229","Station Name":"Southport Ave & Roscoe St","Address":"Southport Ave & Roscoe St","Total Docks":"19","Docks in Service":"19","Status":"In Service","Latitude":"41.943739","Longitude":"-87.66402","Location":"(41.943739, -87.66402)"},"geometry":{"type":"Point","coordinates":[-87.66402,41.943739]}},{"type":"Feature","properties":{"ID":"230","Station Name":"Lincoln Ave & Roscoe St","Address":"Lincoln Ave & Roscoe St","Total Docks":"19","Docks in Service":"19","Status":"In Service","Latitude":"41.94334","Longitude":"-87.67097","Location":"(41.94334, -87.67097)"},"geometry":{"type":"Point","coordinates":[-87.67097,41.94334]}},{"type":"Feature","properties":{"ID":"231","Station Name":"Sheridan Rd & Montrose Ave","Address":"Sheridan Rd & Montrose Ave","Total Docks":"15","Docks in Service":"15","Status":"In Service","Latitude":"41.96167","Longitude":"-87.65464","Location":"(41.96167, -87.65464)"},"geometry":{"type":"Point","coordinates":[-87.65464,41.96167]}},{"type":"Feature","properties":{"ID":"232","Station Name":"Pine Grove Ave & Waveland Ave","Address":"Pine Grove Ave & Waveland Ave","Total Docks":"23","Docks in Service":"23","Status":"In Service","Latitude":"41.949275","Longitude":"-87.646303","Location":"(41.949275, -87.646303)"},"geometry":{"type":"Point","coordinates":[-87.646303,41.949275]}},{"type":"Feature","properties":{"ID":"233","Station Name":"Sangamon St & Washington Blvd","Address":"Sangamon St & Washington Blvd","Total Docks":"15","Docks in Service":"15","Status":"In Service","Latitude":"41.883004","Longitude":"-87.651148","Location":"(41.883004, -87.651148)"},"geometry":{"type":"Point","coordinates":[-87.651148,41.883004]}},{"type":"Feature","properties":{"ID":"234","Station Name":"Clark St & Montrose Ave","Address":"Clark St & Montrose Ave","Total Docks":"19","Docks in Service":"19","Status":"In Service","Latitude":"41.961588","Longitude":"-87.666036","Location":"(41.961588, -87.666036)"},"geometry":{"type":"Point","coordinates":[-87.666036,41.961588]}},{"type":"Feature","properties":{"ID":"236","Station Name":"Sedgwick St & Schiller St","Address":"Sedgwick St & Schiller St","Total Docks":"15","Docks in Service":"15","Status":"In Service","Latitude":"41.907576","Longitude":"-87.638517","Location":"(41.907576, -87.638517)"},"geometry":{"type":"Point","coordinates":[-87.638517,41.907576]}},{"type":"Feature","properties":{"ID":"237","Station Name":"MLK Jr Dr & 29th St","Address":"MLK Jr Dr & 29th St","Total Docks":"15","Docks in Service":"15","Status":"In Service","Latitude":"41.842052","Longitude":"-87.617","Location":"(41.842052, -87.617)"},"geometry":{"type":"Point","coordinates":[-87.617,41.842052]}},{"type":"Feature","properties":{"ID":"238","Station Name":"Ravenswood Ave & Montrose Ave","Address":"Ravenswood Ave & Montrose Ave","Total Docks":"15","Docks in Service":"15","Status":"In Service","Latitude":"41.961615","Longitude":"-87.674365","Location":"(41.961615, -87.674365)"},"geometry":{"type":"Point","coordinates":[-87.674365,41.961615]}},{"type":"Feature","properties":{"ID":"239","Station Name":"Western Ave & Leland Ave","Address":"Western Ave & Leland Ave","Total Docks":"19","Docks in Service":"19","Status":"In Service","Latitude":"41.966555","Longitude":"-87.688487","Location":"(41.966555, -87.688487)"},"geometry":{"type":"Point","coordinates":[-87.688487,41.966555]}},{"type":"Feature","properties":{"ID":"240","Station Name":"Sheridan Rd & Irving Park Rd","Address":"Sheridan Rd & Irving Park Rd","Total Docks":"23","Docks in Service":"23","Status":"In Service","Latitude":"41.954245","Longitude":"-87.654406","Location":"(41.954245, -87.654406)"},"geometry":{"type":"Point","coordinates":[-87.654406,41.954245]}},{"type":"Feature","properties":{"ID":"241","Station Name":"Morgan St & Polk St","Address":"Morgan St & Polk St","Total Docks":"15","Docks in Service":"15","Status":"In Service","Latitude":"41.871737","Longitude":"-87.65103","Location":"(41.871737, -87.65103)"},"geometry":{"type":"Point","coordinates":[-87.65103,41.871737]}},{"type":"Feature","properties":{"ID":"242","Station Name":"Damen Ave & Leland Ave","Address":"Damen Ave & Leland Ave","Total Docks":"15","Docks in Service":"15","Status":"In Service","Latitude":"41.967094","Longitude":"-87.679028","Location":"(41.967094, -87.679028)"},"geometry":{"type":"Point","coordinates":[-87.679028,41.967094]}},{"type":"Feature","properties":{"ID":"243","Station Name":"Lincoln Ave & Leavitt St","Address":"Lincoln Ave & Leavitt St","Total Docks":"15","Docks in Service":"15","Status":"In Service","Latitude":"41.962391","Longitude":"-87.684146","Location":"(41.962391, -87.684146)"},"geometry":{"type":"Point","coordinates":[-87.684146,41.962391]}},{"type":"Feature","properties":{"ID":"244","Station Name":"Ravenswood Ave & Irving Park Rd","Address":"Ravenswood Ave & Irving Park Rd","Total Docks":"19","Docks in Service":"19","Status":"In Service","Latitude":"41.95469","Longitude":"-87.67393","Location":"(41.95469, -87.67393)"},"geometry":{"type":"Point","coordinates":[-87.67393,41.95469]}},{"type":"Feature","properties":{"ID":"245","Station Name":"Clarendon Ave & Junior Ter","Address":"Clarendon Ave & Junior Ter","Total Docks":"15","Docks in Service":"15","Status":"In Service","Latitude":"41.961004","Longitude":"-87.649603","Location":"(41.961004, -87.649603)"},"geometry":{"type":"Point","coordinates":[-87.649603,41.961004]}},{"type":"Feature","properties":{"ID":"246","Station Name":"Ashland Ave & Belle Plaine Ave","Address":"Ashland Ave & Belle Plaine Ave","Total Docks":"11","Docks in Service":"11","Status":"In Service","Latitude":"41.956061","Longitude":"-87.668869","Location":"(41.956061, -87.668869)"},"geometry":{"type":"Point","coordinates":[-87.668869,41.956061]}},{"type":"Feature","properties":{"ID":"247","Station Name":"Shore Drive & 55th St","Address":"Shore Drive & 55th St","Total Docks":"15","Docks in Service":"15","Status":"In Service","Latitude":"41.795212","Longitude":"-87.580715","Location":"(41.795212, -87.580715)"},"geometry":{"type":"Point","coordinates":[-87.580715,41.795212]}},{"type":"Feature","properties":{"ID":"248","Station Name":"Woodlawn Ave & 55th St","Address":"Woodlawn Ave & 55th St","Total Docks":"15","Docks in Service":"15","Status":"In Service","Latitude":"41.795264","Longitude":"-87.596471","Location":"(41.795264, -87.596471)"},"geometry":{"type":"Point","coordinates":[-87.596471,41.795264]}},{"type":"Feature","properties":{"ID":"249","Station Name":"Montrose Harbor","Address":"Montrose Harbor","Total Docks":"15","Docks in Service":"15","Status":"In Service","Latitude":"41.963982","Longitude":"-87.638181","Location":"(41.963982, -87.638181)"},"geometry":{"type":"Point","coordinates":[-87.638181,41.963982]}},{"type":"Feature","properties":{"ID":"250","Station Name":"Ashland Ave & Wellington Ave","Address":"Ashland Ave & Wellington Ave","Total Docks":"19","Docks in Service":"19","Status":"In Service","Latitude":"41.936083","Longitude":"-87.669807","Location":"(41.936083, -87.669807)"},"geometry":{"type":"Point","coordinates":[-87.669807,41.936083]}},{"type":"Feature","properties":{"ID":"251","Station Name":"Clarendon Ave & Leland Ave","Address":"Clarendon Ave & Leland Ave","Total Docks":"15","Docks in Service":"15","Status":"In Service","Latitude":"41.967968","Longitude":"-87.650001","Location":"(41.967968, -87.650001)"},"geometry":{"type":"Point","coordinates":[-87.650001,41.967968]}},{"type":"Feature","properties":{"ID":"252","Station Name":"Greenwood Ave & 47th St","Address":"Greenwood Ave & 47th St","Total Docks":"15","Docks in Service":"15","Status":"In Service","Latitude":"41.809835","Longitude":"-87.599383","Location":"(41.809835, -87.599383)"},"geometry":{"type":"Point","coordinates":[-87.599383,41.809835]}},{"type":"Feature","properties":{"ID":"253","Station Name":"Clifton Ave & Lawrence Ave","Address":"Clifton Ave & Lawrence Ave","Total Docks":"15","Docks in Service":"15","Status":"In Service","Latitude":"41.968873","Longitude":"-87.658857","Location":"(41.968873, -87.658857)"},"geometry":{"type":"Point","coordinates":[-87.658857,41.968873]}},{"type":"Feature","properties":{"ID":"254","Station Name":"Pine Grove Ave & Irving Park Rd","Address":"Pine Grove Ave & Irving Park Rd","Total Docks":"15","Docks in Service":"15","Status":"In Service","Latitude":"41.954383","Longitude":"-87.648043","Location":"(41.954383, -87.648043)"},"geometry":{"type":"Point","coordinates":[-87.648043,41.954383]}},{"type":"Feature","properties":{"ID":"255","Station Name":"Indiana Ave & Roosevelt Rd","Address":"Indiana Ave & Roosevelt Rd","Total Docks":"31","Docks in Service":"31","Status":"In Service","Latitude":"41.867888","Longitude":"-87.623041","Location":"(41.867888, -87.623041)"},"geometry":{"type":"Point","coordinates":[-87.623041,41.867888]}},{"type":"Feature","properties":{"ID":"256","Station Name":"Broadway & Sheridan Rd","Address":"Broadway & Sheridan Rd","Total Docks":"15","Docks in Service":"15","Status":"In Service","Latitude":"41.952833","Longitude":"-87.649993","Location":"(41.952833, -87.649993)"},"geometry":{"type":"Point","coordinates":[-87.649993,41.952833]}},{"type":"Feature","properties":{"ID":"257","Station Name":"Lincoln Ave & Waveland Ave","Address":"Lincoln Ave & Waveland Ave","Total Docks":"15","Docks in Service":"15","Status":"In Service","Latitude":"41.94911","Longitude":"-87.675112","Location":"(41.94911, -87.675112)"},"geometry":{"type":"Point","coordinates":[-87.675112,41.94911]}},{"type":"Feature","properties":{"ID":"258","Station Name":"Logan Blvd & Elston Ave","Address":"Logan Blvd & Elston Ave","Total Docks":"19","Docks in Service":"19","Status":"In Service","Latitude":"41.930584","Longitude":"-87.685126","Location":"(41.930584, -87.685126)"},"geometry":{"type":"Point","coordinates":[-87.685126,41.930584]}},{"type":"Feature","properties":{"ID":"259","Station Name":"California Ave & Francis Pl","Address":"California Ave & Francis Pl","Total Docks":"15","Docks in Service":"15","Status":"In Service","Latitude":"41.91855","Longitude":"-87.69723","Location":"(41.91855, -87.69723)"},"geometry":{"type":"Point","coordinates":[-87.69723,41.91855]}},{"type":"Feature","properties":{"ID":"260","Station Name":"Kedzie Ave & Milwaukee Ave","Address":"Kedzie Ave & Milwaukee Ave","Total Docks":"19","Docks in Service":"19","Status":"In Service","Latitude":"41.929567","Longitude":"-87.707857","Location":"(41.929567, -87.707857)"},"geometry":{"type":"Point","coordinates":[-87.707857,41.929567]}},{"type":"Feature","properties":{"ID":"261","Station Name":"Hermitage Ave & Polk St","Address":"Hermitage Ave & Polk St","Total Docks":"15","Docks in Service":"15","Status":"In Service","Latitude":"41.871514","Longitude":"-87.669886","Location":"(41.871514, -87.669886)"},"geometry":{"type":"Point","coordinates":[-87.669886,41.871514]}},{"type":"Feature","properties":{"ID":"262","Station Name":"Halsted St & 37th St","Address":"On Street","Total Docks":"11","Docks in Service":"11","Status":"In Service","Latitude":"41.827071","Longitude":"-87.645801","Location":"(41.827071, -87.645801)"},"geometry":{"type":"Point","coordinates":[-87.645801,41.827071]}},{"type":"Feature","properties":{"ID":"263","Station Name":"Rhodes Ave & 32nd St","Address":"Rhodes Ave & 32nd St","Total Docks":"11","Docks in Service":"10","Status":"In Service","Latitude":"41.836208","Longitude":"-87.613533","Location":"(41.836208, -87.613533)"},"geometry":{"type":"Point","coordinates":[-87.613533,41.836208]}},{"type":"Feature","properties":{"ID":"264","Station Name":"Stetson Ave & South Water St","Address":"Stetson Ave & South Water St","Total Docks":"19","Docks in Service":"19","Status":"In Service","Latitude":"41.886835","Longitude":"-87.62232","Location":"(41.886835, -87.62232)"},"geometry":{"type":"Point","coordinates":[-87.62232,41.886835]}},{"type":"Feature","properties":{"ID":"265","Station Name":"Cottage Grove Ave & Oakwood Blvd","Address":"Cottage Grove Ave & Oakwood Blvd","Total Docks":"15","Docks in Service":"15","Status":"In Service","Latitude":"41.822985","Longitude":"-87.6071","Location":"(41.822985, -87.6071)"},"geometry":{"type":"Point","coordinates":[-87.6071,41.822985]}},{"type":"Feature","properties":{"ID":"267","Station Name":"Lake Park Ave & 47th St","Address":"Lake Park Ave & 47th St","Total Docks":"15","Docks in Service":"15","Status":"In Service","Latitude":"41.809443","Longitude":"-87.591875","Location":"(41.809443, -87.591875)"},"geometry":{"type":"Point","coordinates":[-87.591875,41.809443]}},{"type":"Feature","properties":{"ID":"268","Station Name":"Lake Shore Dr & North Blvd","Address":"Lake Shore Dr & North Blvd","Total Docks":"15","Docks in Service":"15","Status":"In Service","Latitude":"41.911722","Longitude":"-87.626804","Location":"(41.911722, -87.626804)"},"geometry":{"type":"Point","coordinates":[-87.626804,41.911722]}},{"type":"Feature","properties":{"ID":"271","Station Name":"Cottage Grove Ave & 43rd St","Address":"Cottage Grove Ave & 43rd St","Total Docks":"11","Docks in Service":"11","Status":"In Service","Latitude":"41.816499","Longitude":"-87.606582","Location":"(41.816499, -87.606582)"},"geometry":{"type":"Point","coordinates":[-87.606582,41.816499]}},{"type":"Feature","properties":{"ID":"272","Station Name":"Indiana Ave & 31st St","Address":"Indiana Ave & 31st St","Total Docks":"11","Docks in Service":"11","Status":"In Service","Latitude":"41.838842","Longitude":"-87.621857","Location":"(41.838842, -87.621857)"},"geometry":{"type":"Point","coordinates":[-87.621857,41.838842]}},{"type":"Feature","properties":{"ID":"273","Station Name":"Michigan Ave & 18th St","Address":"Michigan Ave & 18th St","Total Docks":"15","Docks in Service":"15","Status":"In Service","Latitude":"41.857937","Longitude":"-87.623633","Location":"(41.857937, -87.623633)"},"geometry":{"type":"Point","coordinates":[-87.623633,41.857937]}},{"type":"Feature","properties":{"ID":"274","Station Name":"Racine Ave & 15th St","Address":"Racine Ave & 15th St","Total Docks":"15","Docks in Service":"15","Status":"In Service","Latitude":"41.861267","Longitude":"-87.656625","Location":"(41.861267, -87.656625)"},"geometry":{"type":"Point","coordinates":[-87.656625,41.861267]}},{"type":"Feature","properties":{"ID":"275","Station Name":"Ashland Ave & 13th St","Address":"Ashland Ave & 13th St","Total Docks":"15","Docks in Service":"15","Status":"In Service","Latitude":"41.865234","Longitude":"-87.666507","Location":"(41.865234, -87.666507)"},"geometry":{"type":"Point","coordinates":[-87.666507,41.865234]}},{"type":"Feature","properties":{"ID":"276","Station Name":"California Ave & North Ave","Address":"California Ave & North Ave","Total Docks":"11","Docks in Service":"11","Status":"In Service","Latitude":"41.91044","Longitude":"-87.6972","Location":"(41.91044, -87.6972)"},"geometry":{"type":"Point","coordinates":[-87.6972,41.91044]}},{"type":"Feature","properties":{"ID":"277","Station Name":"Ashland Ave & Grand Ave","Address":"Off Street","Total Docks":"15","Docks in Service":"15","Status":"In Service","Latitude":"41.891072","Longitude":"-87.666611","Location":"(41.891072, -87.666611)"},"geometry":{"type":"Point","coordinates":[-87.666611,41.891072]}},{"type":"Feature","properties":{"ID":"278","Station Name":"Wallace Ave & 35th St","Address":"On Street","Total Docks":"15","Docks in Service":"15","Status":"In Service","Latitude":"41.830629","Longitude":"-87.64129","Location":"(41.830629, -87.64129)"},"geometry":{"type":"Point","coordinates":[-87.64129,41.830629]}},{"type":"Feature","properties":{"ID":"279","Station Name":"Halsted St & 35th St","Address":"Halsted St & 35th St","Total Docks":"15","Docks in Service":"15","Status":"In Service","Latitude":"41.830661","Longitude":"-87.647172","Location":"(41.830661, -87.647172)"},"geometry":{"type":"Point","coordinates":[-87.647172,41.830661]}},{"type":"Feature","properties":{"ID":"280","Station Name":"Morgan St & 31st St","Address":"Morgan St & 31st St","Total Docks":"11","Docks in Service":"11","Status":"In Service","Latitude":"41.8378","Longitude":"-87.65114","Location":"(41.8378, -87.65114)"},"geometry":{"type":"Point","coordinates":[-87.65114,41.8378]}},{"type":"Feature","properties":{"ID":"281","Station Name":"Western Ave & 24th St","Address":"Western Ave & 24th St","Total Docks":"11","Docks in Service":"11","Status":"In Service","Latitude":"41.84847","Longitude":"-87.685109","Location":"(41.84847, -87.685109)"},"geometry":{"type":"Point","coordinates":[-87.685109,41.84847]}},{"type":"Feature","properties":{"ID":"282","Station Name":"Halsted St & Maxwell St","Address":"Halsted St & Maxwell St","Total Docks":"15","Docks in Service":"15","Status":"In Service","Latitude":"41.86458","Longitude":"-87.64693","Location":"(41.86458, -87.64693)"},"geometry":{"type":"Point","coordinates":[-87.64693,41.86458]}},{"type":"Feature","properties":{"ID":"283","Station Name":"LaSalle St & Jackson Blvd","Address":"LaSalle St & Jackson Blvd","Total Docks":"31","Docks in Service":"31","Status":"In Service","Latitude":"41.87817","Longitude":"-87.631985","Location":"(41.87817, -87.631985)"},"geometry":{"type":"Point","coordinates":[-87.631985,41.87817]}},{"type":"Feature","properties":{"ID":"284","Station Name":"Michigan Ave & Jackson Blvd","Address":"Michigan Ave & Jackson Blvd","Total Docks":"23","Docks in Service":"23","Status":"In Service","Latitude":"41.87785","Longitude":"-87.62408","Location":"(41.87785, -87.62408)"},"geometry":{"type":"Point","coordinates":[-87.62408,41.87785]}},{"type":"Feature","properties":{"ID":"285","Station Name":"Wood St & Grand Ave","Address":"On Street","Total Docks":"15","Docks in Service":"15","Status":"In Service","Latitude":"41.89113","Longitude":"-87.67203","Location":"(41.89113, -87.67203)"},"geometry":{"type":"Point","coordinates":[-87.67203,41.89113]}},{"type":"Feature","properties":{"ID":"286","Station Name":"Franklin St & Quincy St","Address":"Franklin St & Quincy St","Total Docks":"23","Docks in Service":"23","Status":"In Service","Latitude":"41.878724","Longitude":"-87.634793","Location":"(41.878724, -87.634793)"},"geometry":{"type":"Point","coordinates":[-87.634793,41.878724]}},{"type":"Feature","properties":{"ID":"287","Station Name":"Franklin St & Arcade Pl","Address":"Franklin St & Arcade Pl","Total Docks":"27","Docks in Service":"27","Status":"In Service","Latitude":"41.881469","Longitude":"-87.635177","Location":"(41.881469, -87.635177)"},"geometry":{"type":"Point","coordinates":[-87.635177,41.881469]}},{"type":"Feature","properties":{"ID":"288","Station Name":"Larrabee St & Armitage Ave","Address":"Larrabee St & Armitage Ave","Total Docks":"11","Docks in Service":"11","Status":"In Service","Latitude":"41.91797","Longitude":"-87.64368","Location":"(41.91797, -87.64368)"},"geometry":{"type":"Point","coordinates":[-87.64368,41.91797]}},{"type":"Feature","properties":{"ID":"289","Station Name":"Wells St & Concord Ln","Address":"Wells St & Concord Ln","Total Docks":"19","Docks in Service":"19","Status":"In Service","Latitude":"41.912202","Longitude":"-87.634664","Location":"(41.912202, -87.634664)"},"geometry":{"type":"Point","coordinates":[-87.634664,41.912202]}},{"type":"Feature","properties":{"ID":"290","Station Name":"Kedzie Ave & Palmer Ct","Address":"Kedzie Ave & Palmer Ct","Total Docks":"15","Docks in Service":"15","Status":"In Service","Latitude":"41.921525","Longitude":"-87.707322","Location":"(41.921525, -87.707322)"},"geometry":{"type":"Point","coordinates":[-87.707322,41.921525]}},{"type":"Feature","properties":{"ID":"291","Station Name":"Wells St & Evergreen Ave","Address":"Wells St & Evergreen Ave","Total Docks":"19","Docks in Service":"19","Status":"In Service","Latitude":"41.906724","Longitude":"-87.63483","Location":"(41.906724, -87.63483)"},"geometry":{"type":"Point","coordinates":[-87.63483,41.906724]}},{"type":"Feature","properties":{"ID":"292","Station Name":"Southport Ave & Clark St","Address":"Southport Ave & Clark St","Total Docks":"11","Docks in Service":"11","Status":"In Service","Latitude":"41.957081","Longitude":"-87.664199","Location":"(41.957081, -87.664199)"},"geometry":{"type":"Point","coordinates":[-87.664199,41.957081]}},{"type":"Feature","properties":{"ID":"293","Station Name":"Broadway & Wilson Ave","Address":"Broadway & Wilson Ave","Total Docks":"19","Docks in Service":"19","Status":"In Service","Latitude":"41.965485","Longitude":"-87.657238","Location":"(41.965485, -87.657238)"},"geometry":{"type":"Point","coordinates":[-87.657238,41.965485]}},{"type":"Feature","properties":{"ID":"294","Station Name":"Broadway & Berwyn Ave","Address":"Broadway & Berwyn Ave","Total Docks":"15","Docks in Service":"15","Status":"In Service","Latitude":"41.978353","Longitude":"-87.659753","Location":"(41.978353, -87.659753)"},"geometry":{"type":"Point","coordinates":[-87.659753,41.978353]}},{"type":"Feature","properties":{"ID":"295","Station Name":"Broadway & Argyle St","Address":"Broadway & Argyle St","Total Docks":"13","Docks in Service":"13","Status":"In Service","Latitude":"41.972972","Longitude":"-87.659637","Location":"(41.972972, -87.659637)"},"geometry":{"type":"Point","coordinates":[-87.659637,41.972972]}},{"type":"Feature","properties":{"ID":"296","Station Name":"Broadway & Belmont Ave","Address":"Broadway & Belmont Ave","Total Docks":"15","Docks in Service":"14","Status":"In Service","Latitude":"41.940106","Longitude":"-87.645451","Location":"(41.940106, -87.645451)"},"geometry":{"type":"Point","coordinates":[-87.645451,41.940106]}},{"type":"Feature","properties":{"ID":"297","Station Name":"Paulina St & Montrose Ave","Address":"Paulina St & Montrose Ave","Total Docks":"15","Docks in Service":"15","Status":"In Service","Latitude":"41.961507","Longitude":"-87.671387","Location":"(41.961507, -87.671387)"},"geometry":{"type":"Point","coordinates":[-87.671387,41.961507]}},{"type":"Feature","properties":{"ID":"298","Station Name":"Lincoln Ave & Belle Plaine Ave","Address":"Lincoln Ave & Belle Plaine Ave","Total Docks":"15","Docks in Service":"15","Status":"In Service","Latitude":"41.955927","Longitude":"-87.679259","Location":"(41.955927, -87.679259)"},"geometry":{"type":"Point","coordinates":[-87.679259,41.955927]}},{"type":"Feature","properties":{"ID":"299","Station Name":"Halsted St & Roscoe St","Address":"Halsted St & Roscoe St","Total Docks":"15","Docks in Service":"15","Status":"In Service","Latitude":"41.94367","Longitude":"-87.64895","Location":"(41.94367, -87.64895)"},"geometry":{"type":"Point","coordinates":[-87.64895,41.94367]}},{"type":"Feature","properties":{"ID":"300","Station Name":"Broadway & Barry Ave","Address":"Broadway & Barry Ave","Total Docks":"19","Docks in Service":"19","Status":"In Service","Latitude":"41.937725","Longitude":"-87.644095","Location":"(41.937725, -87.644095)"},"geometry":{"type":"Point","coordinates":[-87.644095,41.937725]}},{"type":"Feature","properties":{"ID":"301","Station Name":"Clark St & Schiller St","Address":"Clark St & Schiller St","Total Docks":"19","Docks in Service":"19","Status":"In Service","Latitude":"41.907993","Longitude":"-87.631501","Location":"(41.907993, -87.631501)"},"geometry":{"type":"Point","coordinates":[-87.631501,41.907993]}},{"type":"Feature","properties":{"ID":"302","Station Name":"Sheffield Ave & Wrightwood Ave","Address":"Sheffield Ave & Wrightwood Ave","Total Docks":"19","Docks in Service":"19","Status":"In Service","Latitude":"41.928712","Longitude":"-87.653833","Location":"(41.928712, -87.653833)"},"geometry":{"type":"Point","coordinates":[-87.653833,41.928712]}},{"type":"Feature","properties":{"ID":"303","Station Name":"Broadway & Cornelia Ave","Address":"Broadway & Cornelia Ave","Total Docks":"15","Docks in Service":"15","Status":"In Service","Latitude":"41.945512","Longitude":"-87.64598","Location":"(41.945512, -87.64598)"},"geometry":{"type":"Point","coordinates":[-87.64598,41.945512]}},{"type":"Feature","properties":{"ID":"304","Station Name":"Halsted St & Waveland Ave","Address":"Halsted St & Waveland Ave","Total Docks":"15","Docks in Service":"15","Status":"In Service","Latitude":"41.949375","Longitude":"-87.649626","Location":"(41.949375, -87.649626)"},"geometry":{"type":"Point","coordinates":[-87.649626,41.949375]}},{"type":"Feature","properties":{"ID":"305","Station Name":"Western Ave & Division St","Address":"Western Ave & Division St","Total Docks":"15","Docks in Service":"15","Status":"In Service","Latitude":"41.902893","Longitude":"-87.687275","Location":"(41.902893, -87.687275)"},"geometry":{"type":"Point","coordinates":[-87.687275,41.902893]}},{"type":"Feature","properties":{"ID":"306","Station Name":"Sheridan Rd & Buena Ave","Address":"Sheridan Rd & Buena Ave","Total Docks":"15","Docks in Service":"15","Status":"In Service","Latitude":"41.9584","Longitude":"-87.65423","Location":"(41.9584, -87.65423)"},"geometry":{"type":"Point","coordinates":[-87.65423,41.9584]}},{"type":"Feature","properties":{"ID":"307","Station Name":"Southport Ave & Clybourn Ave","Address":"Southport Ave & Clybourn Ave","Total Docks":"15","Docks in Service":"15","Status":"In Service","Latitude":"41.920445","Longitude":"-87.663095","Location":"(41.920445, -87.663095)"},"geometry":{"type":"Point","coordinates":[-87.663095,41.920445]}},{"type":"Feature","properties":{"ID":"308","Station Name":"Seeley Ave & Roscoe St","Address":"Seeley Ave & Roscoe St","Total Docks":"11","Docks in Service":"11","Status":"In Service","Latitude":"41.943403","Longitude":"-87.679618","Location":"(41.943403, -87.679618)"},"geometry":{"type":"Point","coordinates":[-87.679618,41.943403]}},{"type":"Feature","properties":{"ID":"309","Station Name":"Leavitt St & Armitage Ave","Address":"Leavitt St & Armitage Ave","Total Docks":"11","Docks in Service":"11","Status":"In Service","Latitude":"41.917805","Longitude":"-87.682437","Location":"(41.917805, -87.682437)"},"geometry":{"type":"Point","coordinates":[-87.682437,41.917805]}},{"type":"Feature","properties":{"ID":"310","Station Name":"Damen Ave & Charleston St","Address":"Damen Ave & Charleston St","Total Docks":"11","Docks in Service":"10","Status":"In Service","Latitude":"41.920082","Longitude":"-87.677855","Location":"(41.920082, -87.677855)"},"geometry":{"type":"Point","coordinates":[-87.677855,41.920082]}},{"type":"Feature","properties":{"ID":"311","Station Name":"Leavitt St & Lawrence Ave","Address":"Leavitt St & Lawrence Ave","Total Docks":"19","Docks in Service":"19","Status":"In Service","Latitude":"41.968885","Longitude":"-87.684001","Location":"(41.968885, -87.684001)"},"geometry":{"type":"Point","coordinates":[-87.684001,41.968885]}},{"type":"Feature","properties":{"ID":"312","Station Name":"Clarendon Ave & Gordon Ter","Address":"Clarendon Ave & Gordon Ter","Total Docks":"15","Docks in Service":"15","Status":"In Service","Latitude":"41.957879","Longitude":"-87.649519","Location":"(41.957879, -87.649519)"},"geometry":{"type":"Point","coordinates":[-87.649519,41.957879]}},{"type":"Feature","properties":{"ID":"313","Station Name":"Lakeview Ave & Fullerton Pkwy","Address":"Lakeview Ave & Fullerton Pkwy","Total Docks":"19","Docks in Service":"19","Status":"In Service","Latitude":"41.925858","Longitude":"-87.638973","Location":"(41.925858, -87.638973)"},"geometry":{"type":"Point","coordinates":[-87.638973,41.925858]}},{"type":"Feature","properties":{"ID":"314","Station Name":"Ravenswood Ave & Berteau Ave","Address":"Ravenswood Ave & Berteau Ave","Total Docks":"15","Docks in Service":"15","Status":"In Service","Latitude":"41.957921","Longitude":"-87.673567","Location":"(41.957921, -87.673567)"},"geometry":{"type":"Point","coordinates":[-87.673567,41.957921]}},{"type":"Feature","properties":{"ID":"315","Station Name":"Leavitt St & Hirsch St","Address":"Leavitt St & Hirsch St","Total Docks":"11","Docks in Service":"11","Status":"In Service","Latitude":"41.906717","Longitude":"-87.682779","Location":"(41.906717, -87.682779)"},"geometry":{"type":"Point","coordinates":[-87.682779,41.906717]}},{"type":"Feature","properties":{"ID":"316","Station Name":"Damen Ave & Sunnyside Ave","Address":"Damen Ave & Sunnyside Ave","Total Docks":"19","Docks in Service":"19","Status":"In Service","Latitude":"41.96325","Longitude":"-87.679258","Location":"(41.96325, -87.679258)"},"geometry":{"type":"Point","coordinates":[-87.679258,41.96325]}},{"type":"Feature","properties":{"ID":"317","Station Name":"Wood St & Taylor St","Address":"Wood St & Taylor St","Total Docks":"15","Docks in Service":"15","Status":"In Service","Latitude":"41.869154","Longitude":"-87.671045","Location":"(41.869154, -87.671045)"},"geometry":{"type":"Point","coordinates":[-87.671045,41.869154]}},{"type":"Feature","properties":{"ID":"318","Station Name":"Southport Ave & Irving Park Rd","Address":"Southport Ave & Irving Park Rd","Total Docks":"15","Docks in Service":"15","Status":"In Service","Latitude":"41.954177","Longitude":"-87.664358","Location":"(41.954177, -87.664358)"},"geometry":{"type":"Point","coordinates":[-87.664358,41.954177]}},{"type":"Feature","properties":{"ID":"319","Station Name":"Greenview Ave & Diversey Pkwy","Address":"Greenview Ave & Diversey Pkwy","Total Docks":"15","Docks in Service":"15","Status":"In Service","Latitude":"41.932595","Longitude":"-87.665939","Location":"(41.932595, -87.665939)"},"geometry":{"type":"Point","coordinates":[-87.665939,41.932595]}},{"type":"Feature","properties":{"ID":"320","Station Name":"Loomis St & Lexington St","Address":"Loomis St & Lexington St","Total Docks":"15","Docks in Service":"15","Status":"In Service","Latitude":"41.872187","Longitude":"-87.661501","Location":"(41.872187, -87.661501)"},"geometry":{"type":"Point","coordinates":[-87.661501,41.872187]}},{"type":"Feature","properties":{"ID":"321","Station Name":"Wabash Ave & 8th St","Address":"Wabash Ave & 8th St","Total Docks":"19","Docks in Service":"19","Status":"In Service","Latitude":"41.871962","Longitude":"-87.626106","Location":"(41.871962, -87.626106)"},"geometry":{"type":"Point","coordinates":[-87.626106,41.871962]}},{"type":"Feature","properties":{"ID":"322","Station Name":"Kimbark Ave & 53rd St","Address":"Kimbark Ave & 53rd St","Total Docks":"15","Docks in Service":"15","Status":"In Service","Latitude":"41.799568","Longitude":"-87.594747","Location":"(41.799568, -87.594747)"},"geometry":{"type":"Point","coordinates":[-87.594747,41.799568]}},{"type":"Feature","properties":{"ID":"323","Station Name":"Sheridan Rd & Lawrence Ave","Address":"Sheridan Rd & Lawrence Ave","Total Docks":"15","Docks in Service":"15","Status":"In Service","Latitude":"41.969517","Longitude":"-87.654691","Location":"(41.969517, -87.654691)"},"geometry":{"type":"Point","coordinates":[-87.654691,41.969517]}},{"type":"Feature","properties":{"ID":"324","Station Name":"Stockton Dr & Wrightwood Ave","Address":"Stockton Dr & Wrightwood Ave","Total Docks":"15","Docks in Service":"15","Status":"In Service","Latitude":"41.93132","Longitude":"-87.638742","Location":"(41.93132, -87.638742)"},"geometry":{"type":"Point","coordinates":[-87.638742,41.93132]}},{"type":"Feature","properties":{"ID":"325","Station Name":"Clark St & Winnemac Ave","Address":"Clark St & Winnemac Ave","Total Docks":"15","Docks in Service":"15","Status":"In Service","Latitude":"41.973385","Longitude":"-87.668365","Location":"(41.973385, -87.668365)"},"geometry":{"type":"Point","coordinates":[-87.668365,41.973385]}},{"type":"Feature","properties":{"ID":"326","Station Name":"Clark St & Leland Ave","Address":"Clark St & Leland Ave","Total Docks":"11","Docks in Service":"11","Status":"In Service","Latitude":"41.967096","Longitude":"-87.667429","Location":"(41.967096, -87.667429)"},"geometry":{"type":"Point","coordinates":[-87.667429,41.967096]}},{"type":"Feature","properties":{"ID":"327","Station Name":"Sheffield Ave & Webster Ave","Address":"Sheffield Ave & Webster Ave","Total Docks":"19","Docks in Service":"19","Status":"In Service","Latitude":"41.921687","Longitude":"-87.653714","Location":"(41.921687, -87.653714)"},"geometry":{"type":"Point","coordinates":[-87.653714,41.921687]}},{"type":"Feature","properties":{"ID":"328","Station Name":"Ellis Ave & 58th St","Address":"Ellis Ave & 58th St","Total Docks":"15","Docks in Service":"15","Status":"In Service","Latitude":"41.788746","Longitude":"-87.601334","Location":"(41.788746, -87.601334)"},"geometry":{"type":"Point","coordinates":[-87.601334,41.788746]}},{"type":"Feature","properties":{"ID":"329","Station Name":"Lake Shore Dr & Diversey Pkwy","Address":"Lake Shore Dr & Diversey Pkwy","Total Docks":"15","Docks in Service":"15","Status":"In Service","Latitude":"41.932684","Longitude":"-87.63625","Location":"(41.932684, -87.63625)"},"geometry":{"type":"Point","coordinates":[-87.63625,41.932684]}},{"type":"Feature","properties":{"ID":"330","Station Name":"Lincoln Ave & Addison St","Address":"Lincoln Ave & Addison St","Total Docks":"19","Docks in Service":"19","Status":"In Service","Latitude":"41.946176","Longitude":"-87.673308","Location":"(41.946176, -87.673308)"},"geometry":{"type":"Point","coordinates":[-87.673308,41.946176]}},{"type":"Feature","properties":{"ID":"331","Station Name":"Halsted St & Blackhawk St","Address":"Halsted St & Blackhawk St","Total Docks":"19","Docks in Service":"19","Status":"In Service","Latitude":"41.90854","Longitude":"-87.648568","Location":"(41.90854, -87.648568)"},"geometry":{"type":"Point","coordinates":[-87.648568,41.90854]}},{"type":"Feature","properties":{"ID":"332","Station Name":"Halsted St & Diversey Pkwy","Address":"Halsted St & Diversey Pkwy","Total Docks":"15","Docks in Service":"15","Status":"In Service","Latitude":"41.933341","Longitude":"-87.648747","Location":"(41.933341, -87.648747)"},"geometry":{"type":"Point","coordinates":[-87.648747,41.933341]}},{"type":"Feature","properties":{"ID":"333","Station Name":"Ashland Ave & Blackhawk St","Address":"Ashland Ave & Blackhawk St","Total Docks":"15","Docks in Service":"15","Status":"In Service","Latitude":"41.907066","Longitude":"-87.667252","Location":"(41.907066, -87.667252)"},"geometry":{"type":"Point","coordinates":[-87.667252,41.907066]}},{"type":"Feature","properties":{"ID":"334","Station Name":"Lake Shore Dr & Belmont Ave","Address":"Lake Shore Dr & Belmont Ave","Total Docks":"19","Docks in Service":"19","Status":"In Service","Latitude":"41.940775","Longitude":"-87.639192","Location":"(41.940775, -87.639192)"},"geometry":{"type":"Point","coordinates":[-87.639192,41.940775]}},{"type":"Feature","properties":{"ID":"335","Station Name":"Calumet Ave & 35th St","Address":"Calumet Ave & 35th St","Total Docks":"15","Docks in Service":"15","Status":"In Service","Latitude":"41.831379","Longitude":"-87.618034","Location":"(41.831379, -87.618034)"},"geometry":{"type":"Point","coordinates":[-87.618034,41.831379]}},{"type":"Feature","properties":{"ID":"336","Station Name":"Cottage Grove Ave & 47th St","Address":"Off Street","Total Docks":"11","Docks in Service":"11","Status":"In Service","Latitude":"41.809855","Longitude":"-87.606755","Location":"(41.809855, -87.606755)"},"geometry":{"type":"Point","coordinates":[-87.606755,41.809855]}},{"type":"Feature","properties":{"ID":"337","Station Name":"Clark St & Chicago Ave","Address":"Clark St & Chicago Ave","Total Docks":"19","Docks in Service":"19","Status":"In Service","Latitude":"41.896544","Longitude":"-87.630931","Location":"(41.896544, -87.630931)"},"geometry":{"type":"Point","coordinates":[-87.630931,41.896544]}},{"type":"Feature","properties":{"ID":"338","Station Name":"Calumet Ave & 18th St","Address":"Calumet Ave & 18th St","Total Docks":"15","Docks in Service":"15","Status":"In Service","Latitude":"41.857611","Longitude":"-87.619407","Location":"(41.857611, -87.619407)"},"geometry":{"type":"Point","coordinates":[-87.619407,41.857611]}},{"type":"Feature","properties":{"ID":"339","Station Name":"Emerald Ave & 31st St","Address":"Emerald Ave & 31st St","Total Docks":"11","Docks in Service":"11","Status":"In Service","Latitude":"41.838198","Longitude":"-87.645143","Location":"(41.838198, -87.645143)"},"geometry":{"type":"Point","coordinates":[-87.645143,41.838198]}},{"type":"Feature","properties":{"ID":"340","Station Name":"Clark St & Wrightwood Ave","Address":"Clark St & Wrightwood Ave","Total Docks":"15","Docks in Service":"15","Status":"In Service","Latitude":"41.929546","Longitude":"-87.643118","Location":"(41.929546, -87.643118)"},"geometry":{"type":"Point","coordinates":[-87.643118,41.929546]}},{"type":"Feature","properties":{"ID":"341","Station Name":"Adler Planetarium","Address":"Off Street","Total Docks":"19","Docks in Service":"19","Status":"In Service","Latitude":"41.866095","Longitude":"-87.607267","Location":"(41.866095, -87.607267)"},"geometry":{"type":"Point","coordinates":[-87.607267,41.866095]}},{"type":"Feature","properties":{"ID":"342","Station Name":"Wolcott Ave & Polk St","Address":"Wolcott Ave & Polk St","Total Docks":"15","Docks in Service":"14","Status":"In Service","Latitude":"41.871262","Longitude":"-87.673688","Location":"(41.871262, -87.673688)"},"geometry":{"type":"Point","coordinates":[-87.673688,41.871262]}},{"type":"Feature","properties":{"ID":"343","Station Name":"Racine Ave & Wrightwood Ave","Address":"Racine Ave & Wrightwood Ave","Total Docks":"15","Docks in Service":"15","Status":"In Service","Latitude":"41.928887","Longitude":"-87.658971","Location":"(41.928887, -87.658971)"},"geometry":{"type":"Point","coordinates":[-87.658971,41.928887]}},{"type":"Feature","properties":{"ID":"344","Station Name":"Ravenswood Ave & Lawrence Ave","Address":"Ravenswood Ave & Lawrence Ave","Total Docks":"19","Docks in Service":"19","Status":"In Service","Latitude":"41.96909","Longitude":"-87.674237","Location":"(41.96909, -87.674237)"},"geometry":{"type":"Point","coordinates":[-87.674237,41.96909]}},{"type":"Feature","properties":{"ID":"345","Station Name":"Lake Park Ave & 56th St","Address":"Lake Park Ave & 56th St","Total Docks":"15","Docks in Service":"15","Status":"In Service","Latitude":"41.793242","Longitude":"-87.587782","Location":"(41.793242, -87.587782)"},"geometry":{"type":"Point","coordinates":[-87.587782,41.793242]}},{"type":"Feature","properties":{"ID":"346","Station Name":"Ada St & Washington Blvd","Address":"Ada St & Washington Blvd","Total Docks":"15","Docks in Service":"15","Status":"In Service","Latitude":"41.88283","Longitude":"-87.661206","Location":"(41.88283, -87.661206)"},"geometry":{"type":"Point","coordinates":[-87.661206,41.88283]}},{"type":"Feature","properties":{"ID":"347","Station Name":"Ashland Ave & Grace St","Address":"Ashland Ave & Grace St","Total Docks":"15","Docks in Service":"15","Status":"In Service","Latitude":"41.950687","Longitude":"-87.6687","Location":"(41.950687, -87.6687)"},"geometry":{"type":"Point","coordinates":[-87.6687,41.950687]}},{"type":"Feature","properties":{"ID":"348","Station Name":"California Ave & 21st St","Address":"California Ave & 21st St","Total Docks":"15","Docks in Service":"15","Status":"In Service","Latitude":"41.854016","Longitude":"-87.695445","Location":"(41.854016, -87.695445)"},"geometry":{"type":"Point","coordinates":[-87.695445,41.854016]}},