{
"type": "FeatureCollection",
"crs": { "type": "name", "properties": { "name": "urn:ogc:def:crs:OGC:1.3:CRS84" } },
                                                                                
"features": [
{ "type": "Feature", "properties": { "STORE NAME": "200 LIQUORS", "SQUARE FEET": 5000, "BUFFER SIZE": "B", "ADDRESS": "204 E 47TH ST", "ZIP CODE": 60653, "CENSUS TRACT": 17031381500.000000, "LATITUDE": 41.809424, "LONGITUDE": -87.620952 }, "geometry": { "type": "Point", "coordinates": [ -87.620952, 41.809424 ] } },
{ "type": "Feature", "properties": { "STORE NAME": "3600 COMMISSARY", "SQUARE FEET": 3800, "BUFFER SIZE": "B", "ADDRESS": "3600 N LAKE SHORE DR", "ZIP CODE": 60613, "CENSUS TRACT": 17031060900.000000, "LATITUDE": 41.948684, "LONGITUDE": -87.643650 }, "geometry": { "type": "Point", "coordinates": [ -87.64365, 41.948684 ] } },
{ "type": "Feature", "properties": { "STORE NAME": "4343 PETES FRESH MARKET", "SQUARE FEET": 57000, "BUFFER SIZE": "A", "ADDRESS": "4343 S PULASKI RD", "ZIP CODE": 60632, "CENSUS TRACT": 17031570100.000000, "LATITUDE": 41.813914, "LONGITUDE": -87.723665 }, "geometry": { "type": "Point", "coordinates": [ -87.723665, 41.813914 ] } },
{ "type": "Feature", "properties": { "STORE NAME": "4700 PETE'S FRESH MARKET", "SQUARE FEET": 45000, "BUFFER SIZE": "A", "ADDRESS": "4700 S KEDZIE AVE", "ZIP CODE": 60632, "CENSUS TRACT": 17031842800.000000, "LATITUDE": 41.808047, "LONGITUDE": -87.704119 }, "geometry": { "type": "Point", "coordinates": [ -87.704119, 41.808047 ] } },
{ "type": "Feature", "properties": { "STORE NAME": "5659 W. DIVERSEY", "SQUARE FEET": 4000, "BUFFER SIZE": "B", "ADDRESS": "5659 W DIVERSEY AVE", "ZIP CODE": 60639, "CENSUS TRACT": 17031190602.000000, "LATITUDE": 41.931135, "LONGITUDE": -87.768612 }, "geometry": { "type": "Point", "coordinates": [ -87.768612, 41.931135 ] } },
{ "type": "Feature", "properties": { "STORE NAME": "7400 S HALSTED FOOD AND LIQUORS, INC.", "SQUARE FEET": 10001, "BUFFER SIZE": "A", "ADDRESS": "7400 S HALSTED ST", "ZIP CODE": 60621, "CENSUS TRACT": 17031681300.000000, "LATITUDE": 41.759675, "LONGITUDE": -87.644420 }, "geometry": { "type": "Point", "coordinates": [ -87.64442, 41.759675 ] } },
{ "type": "Feature", "properties": { "STORE NAME": "79 FOOD BASKET", "SQUARE FEET": 3000, "BUFFER SIZE": "B", "ADDRESS": "1351 W 79TH ST", "ZIP CODE": 60620, "CENSUS TRACT": 17031710700.000000, "LATITUDE": 41.750321, "LONGITUDE": -87.658189 }, "geometry": { "type": "Point", "coordinates": [ -87.658189, 41.750321 ] } },
{ "type": "Feature", "properties": { "STORE NAME": "AARAY GROCERY", "SQUARE FEET": 10001, "BUFFER SIZE": "A", "ADDRESS": "2601 N HALSTED ST", "ZIP CODE": 60614, "CENSUS TRACT": 17031070200.000000, "LATITUDE": 41.929210, "LONGITUDE": -87.648746 }, "geometry": { "type": "Point", "coordinates": [ -87.648746, 41.92921 ] } },
{ "type": "Feature", "properties": { "STORE NAME": "A & B FOOD MARKET INC", "SQUARE FEET": 10001, "BUFFER SIZE": "A", "ADDRESS": "5057 W DIVISION ST", "ZIP CODE": 60651, "CENSUS TRACT": 17031251100.000000, "LATITUDE": 41.902166, "LONGITUDE": -87.753182 }, "geometry": { "type": "Point", "coordinates": [ -87.753182, 41.902166 ] } },
{ "type": "Feature", "properties": { "STORE NAME": "ADA FOODS", "SQUARE FEET": 4500, "BUFFER SIZE": "B", "ADDRESS": "1281 W 71ST ST", "ZIP CODE": 60636, "CENSUS TRACT": 17031671800.000000, "LATITUDE": 41.764894, "LONGITUDE": -87.657308 }, "geometry": { "type": "Point", "coordinates": [ -87.657308, 41.764894 ] } },
{ "type": "Feature", "properties": { "STORE NAME": "ADAMS FOOD MART", "SQUARE FEET": 2500, "BUFFER SIZE": "B", "ADDRESS": "559 N LARAMIE AVE", "ZIP CODE": 60644, "CENSUS TRACT": 17031251600.000000, "LATITUDE": 41.891034, "LONGITUDE": -87.755310 }, "geometry": { "type": "Point", "coordinates": [ -87.75531, 41.891034 ] } },
{ "type": "Feature", "properties": { "STORE NAME": "A & G LIQUORS", "SQUARE FEET": 4800, "BUFFER SIZE": "B", "ADDRESS": "6945 S STATE ST", "ZIP CODE": 60637, "CENSUS TRACT": 17031690400.000000, "LATITUDE": 41.767831, "LONGITUDE": -87.624766 }, "geometry": { "type": "Point", "coordinates": [ -87.624766, 41.767831 ] } },
{ "type": "Feature", "properties": { "STORE NAME": "AL BAYAN GROCERY INC.", "SQUARE FEET": 2500, "BUFFER SIZE": "B", "ADDRESS": "3134 N NARRAGANSETT AVE", "ZIP CODE": 60634, "CENSUS TRACT": 17031831500.000000, "LATITUDE": 41.937565, "LONGITUDE": -87.786054 }, "geometry": { "type": "Point", "coordinates": [ -87.786054, 41.937565 ] } },
{ "type": "Feature", "properties": { "STORE NAME": "ALDI", "SQUARE FEET": 15680, "BUFFER SIZE": "A", "ADDRESS": "6221 N BROADWAY", "ZIP CODE": 60660, "CENSUS TRACT": 17031030103.000000, "LATITUDE": 41.995211, "LONGITUDE": -87.660278 }, "geometry": { "type": "Point", "coordinates": [ -87.660278, 41.995211 ] } },
{ "type": "Feature", "properties": { "STORE NAME": "ALDI", "SQUARE FEET": 16615, "BUFFER SIZE": "A", "ADDRESS": "6621 S COTTAGE GROVE AVE", "ZIP CODE": 60637, "CENSUS TRACT": 17031420800.000000, "LATITUDE": 41.774306, "LONGITUDE": -87.605648 }, "geometry": { "type": "Point", "coordinates": [ -87.605648, 41.774306 ] } },
{ "type": "Feature", "properties": { "STORE NAME": "ALDI #28", "SQUARE FEET": 15154, "BUFFER SIZE": "A", "ADDRESS": "4934 S KEDZIE AVE", "ZIP CODE": 60632, "CENSUS TRACT": 17031630300.000000, "LATITUDE": 41.803446, "LONGITUDE": -87.703986 }, "geometry": { "type": "Point", "coordinates": [ -87.703986, 41.803446 ] } },
{ "type": "Feature", "properties": { "STORE NAME": "ALDI #30", "SQUARE FEET": 15154, "BUFFER SIZE": "A", "ADDRESS": "3030 S KEDZIE AVE", "ZIP CODE": 60623, "CENSUS TRACT": 17031840800.000000, "LATITUDE": 41.838114, "LONGITUDE": -87.704994 }, "geometry": { "type": "Point", "coordinates": [ -87.704994, 41.838114 ] } },
{ "type": "Feature", "properties": { "STORE NAME": "ALDI #32", "SQUARE FEET": 16924, "BUFFER SIZE": "A", "ADDRESS": "1840 N CLYBOURN AVE", "ZIP CODE": 60614, "CENSUS TRACT": 17031832600.000000, "LATITUDE": 41.914424, "LONGITUDE": -87.654628 }, "geometry": { "type": "Point", "coordinates": [ -87.654628, 41.914424 ] } },
{ "type": "Feature", "properties": { "STORE NAME": "ALDI #70", "SQUARE FEET": 18263, "BUFFER SIZE": "A", "ADDRESS": "7627 S ASHLAND AVE", "ZIP CODE": 60620, "CENSUS TRACT": 17031710300.000000, "LATITUDE": 41.754991, "LONGITUDE": -87.663404 }, "geometry": { "type": "Point", "coordinates": [ -87.663404, 41.754991 ] } },
{ "type": "Feature", "properties": { "STORE NAME": "ALDI #79", "SQUARE FEET": 15150, "BUFFER SIZE": "A", "ADDRESS": "7800 S SOUTH CHICAGO AVE", "ZIP CODE": 60619, "CENSUS TRACT": 17031834300.000000, "LATITUDE": 41.752746, "LONGITUDE": -87.587523 }, "geometry": { "type": "Point", "coordinates": [ -87.587523, 41.752746 ] } },
{ "type": "Feature", "properties": { "STORE NAME": "ALDI FOODS #91", "SQUARE FEET": 15565, "BUFFER SIZE": "A", "ADDRESS": "3835 W MADISON ST", "ZIP CODE": 60624, "CENSUS TRACT": 17031260800.000000, "LATITUDE": 41.880659, "LONGITUDE": -87.722194 }, "geometry": { "type": "Point", "coordinates": [ -87.722194, 41.880659 ] } },
{ "type": "Feature", "properties": { "STORE NAME": "ALDI FOODS -STORE #04", "SQUARE FEET": 12500, "BUFFER SIZE": "A", "ADDRESS": "800 N KEDZIE AVE", "ZIP CODE": 60651, "CENSUS TRACT": 17031836600.000000, "LATITUDE": 41.895615, "LONGITUDE": -87.706705 }, "geometry": { "type": "Point", "coordinates": [ -87.706705, 41.895615 ] } },
{ "type": "Feature", "properties": { "STORE NAME": "ALDI FOODS STORE #2", "SQUARE FEET": 15600, "BUFFER SIZE": "A", "ADDRESS": "4645 W DIVERSEY AVE", "ZIP CODE": 60639, "CENSUS TRACT": 17031190900.000000, "LATITUDE": 41.931461, "LONGITUDE": -87.743717 }, "geometry": { "type": "Point", "coordinates": [ -87.743717, 41.931461 ] } },
{ "type": "Feature", "properties": { "STORE NAME": "ALDI FOODS STORE #26", "SQUARE FEET": 15540, "BUFFER SIZE": "A", "ADDRESS": "2600 N CLYBOURN AVE", "ZIP CODE": 60614, "CENSUS TRACT": 17031070700.000000, "LATITUDE": 41.928695, "LONGITUDE": -87.674195 }, "geometry": { "type": "Point", "coordinates": [ -87.674195, 41.928695 ] } },
{ "type": "Feature", "properties": { "STORE NAME": "ALDI FOODS-STORE #27", "SQUARE FEET": 12300, "BUFFER SIZE": "A", "ADDRESS": "3363 N MILWAUKEE AVE", "ZIP CODE": 60641, "CENSUS TRACT": 17031161300.000000, "LATITUDE": 41.942384, "LONGITUDE": -87.729011 }, "geometry": { "type": "Point", "coordinates": [ -87.729011, 41.942384 ] } },
{ "type": "Feature", "properties": { "STORE NAME": "ALDI FOODS STORE #30", "SQUARE FEET": 14860, "BUFFER SIZE": "A", "ADDRESS": "4030 W WRIGHTWOOD AVE", "ZIP CODE": 60639, "CENSUS TRACT": 17031220702.000000, "LATITUDE": 41.928208, "LONGITUDE": -87.728159 }, "geometry": { "type": "Point", "coordinates": [ -87.728159, 41.928208 ] } },
{ "type": "Feature", "properties": { "STORE NAME": "ALDI FOODS STORE #90B", "SQUARE FEET": 15565, "BUFFER SIZE": "A", "ADDRESS": "2828 N CENTRAL AVE", "ZIP CODE": 60634, "CENSUS TRACT": 17031190402.000000, "LATITUDE": 41.932158, "LONGITUDE": -87.766425 }, "geometry": { "type": "Point", "coordinates": [ -87.766425, 41.932158 ] } },
{ "type": "Feature", "properties": { "STORE NAME": "ALDI INC #06", "SQUARE FEET": 14000, "BUFFER SIZE": "A", "ADDRESS": "5001 N PULASKI RD", "ZIP CODE": 60630, "CENSUS TRACT": 17031140302.000000, "LATITUDE": 41.971981, "LONGITUDE": -87.727987 }, "geometry": { "type": "Point", "coordinates": [ -87.727987, 41.971981 ] } },
{ "type": "Feature", "properties": { "STORE NAME": "ALDI INC #10", "SQUARE FEET": 15540, "BUFFER SIZE": "A", "ADDRESS": "4501 S PULASKI RD", "ZIP CODE": 60632, "CENSUS TRACT": 17031570100.000000, "LATITUDE": 41.811452, "LONGITUDE": -87.723575 }, "geometry": { "type": "Point", "coordinates": [ -87.723575, 41.811452 ] } },
{ "type": "Feature", "properties": { "STORE NAME": "ALDI INC #53", "SQUARE FEET": 13981, "BUFFER SIZE": "A", "ADDRESS": "5775 S ARCHER AVE", "ZIP CODE": 60638, "CENSUS TRACT": 17031560700.000000, "LATITUDE": 41.796380, "LONGITUDE": -87.757348 }, "geometry": { "type": "Point", "coordinates": [ -87.757348, 41.79638 ] } },
{ "type": "Feature", "properties": { "STORE NAME": "ALDI INC #58", "SQUARE FEET": 12571, "BUFFER SIZE": "A", "ADDRESS": "2431 W MONTROSE AVE", "ZIP CODE": 60618, "CENSUS TRACT": 17031050300.000000, "LATITUDE": 41.961194, "LONGITUDE": -87.689967 }, "geometry": { "type": "Point", "coordinates": [ -87.689967, 41.961194 ] } },
{ "type": "Feature", "properties": { "STORE NAME": "ALDI INC # 62", "SQUARE FEET": 12646, "BUFFER SIZE": "A", "ADDRESS": "6220 N CALIFORNIA AVE", "ZIP CODE": 60659, "CENSUS TRACT": 17031020702.000000, "LATITUDE": 41.994621, "LONGITUDE": -87.699687 }, "geometry": { "type": "Point", "coordinates": [ -87.699687, 41.994621 ] } },
{ "type": "Feature", "properties": { "STORE NAME": "ALDI INC #64", "SQUARE FEET": 11760, "BUFFER SIZE": "A", "ADDRESS": "1767 N MILWAUKEE AVE", "ZIP CODE": 60647, "CENSUS TRACT": 17031831000.000000, "LATITUDE": 41.913588, "LONGITUDE": -87.682203 }, "geometry": { "type": "Point", "coordinates": [ -87.682203, 41.913588 ] } },
{ "type": "Feature", "properties": { "STORE NAME": "ALDI INC #83", "SQUARE FEET": 16300, "BUFFER SIZE": "A", "ADDRESS": "8333 S CICERO AVE", "ZIP CODE": 60652, "CENSUS TRACT": 17031700302.000000, "LATITUDE": 41.740911, "LONGITUDE": -87.740923 }, "geometry": { "type": "Point", "coordinates": [ -87.740923, 41.740911 ] } },
{ "type": "Feature", "properties": { "STORE NAME": "ALDI INC #92", "SQUARE FEET": 19410, "BUFFER SIZE": "A", "ADDRESS": "620 W 63RD ST", "ZIP CODE": 60621, "CENSUS TRACT": 17031680900.000000, "LATITUDE": 41.779920, "LONGITUDE": -87.640926 }, "geometry": { "type": "Point", "coordinates": [ -87.640926, 41.77992 ] } },
{ "type": "Feature", "properties": { "STORE NAME": "ALDI INC.#94", "SQUARE FEET": 10001, "BUFFER SIZE": "A", "ADDRESS": "6025 S WESTERN AVE", "ZIP CODE": 60636, "CENSUS TRACT": 17031835000.000000, "LATITUDE": 41.783966, "LONGITUDE": -87.683623 }, "geometry": { "type": "Point", "coordinates": [ -87.683623, 41.783966 ] } },
{ "type": "Feature", "properties": { "STORE NAME": "ALDI INC. #96", "SQUARE FEET": 16117, "BUFFER SIZE": "A", "ADDRESS": "821 W 115TH ST", "ZIP CODE": 60643, "CENSUS TRACT": 17031530300.000000, "LATITUDE": 41.684961, "LONGITUDE": -87.643022 }, "geometry": { "type": "Point", "coordinates": [ -87.643022, 41.684961 ] } },
{ "type": "Feature", "properties": { "STORE NAME": "ALDI INC STORE 14", "SQUARE FEET": 15000, "BUFFER SIZE": "A", "ADDRESS": "5629 W FILLMORE ST", "ZIP CODE": 60644, "CENSUS TRACT": 17031831400.000000, "LATITUDE": 41.867316, "LONGITUDE": -87.765598 }, "geometry": { "type": "Point", "coordinates": [ -87.765598, 41.867316 ] } },
{ "type": "Feature", "properties": { "STORE NAME": "ALDI INC STORE #16", "SQUARE FEET": 20848, "BUFFER SIZE": "A", "ADDRESS": "1246 E 87TH ST", "ZIP CODE": 60619, "CENSUS TRACT": 17031834300.000000, "LATITUDE": 41.736915, "LONGITUDE": -87.593657 }, "geometry": { "type": "Point", "coordinates": [ -87.593657, 41.736915 ] } },
{ "type": "Feature", "properties": { "STORE NAME": "ALDI INC STORE #62", "SQUARE FEET": 9495, "BUFFER SIZE": "B", "ADDRESS": "1739 W CERMAK RD", "ZIP CODE": 60608, "CENSUS TRACT": 17031843200.000000, "LATITUDE": 41.852151, "LONGITUDE": -87.670075 }, "geometry": { "type": "Point", "coordinates": [ -87.670075, 41.852151 ] } },
{ "type": "Feature", "properties": { "STORE NAME": "ALDI INC STORE #90", "SQUARE FEET": 16340, "BUFFER SIZE": "A", "ADDRESS": "9017 S HALSTED ST", "ZIP CODE": 60620, "CENSUS TRACT": 17031711500.000000, "LATITUDE": 41.730297, "LONGITUDE": -87.643309 }, "geometry": { "type": "Point", "coordinates": [ -87.643309, 41.730297 ] } },
{ "type": "Feature", "properties": { "STORE NAME": "ALDI INC STORE #95", "SQUARE FEET": 37000, "BUFFER SIZE": "A", "ADDRESS": "2333 E 95TH ST", "ZIP CODE": 60617, "CENSUS TRACT": 17031510300.000000, "LATITUDE": 41.722466, "LONGITUDE": -87.566673 }, "geometry": { "type": "Point", "coordinates": [ -87.566673, 41.722466 ] } },
{ "type": "Feature", "properties": { "STORE NAME": "ALDI'S", "SQUARE FEET": 11179, "BUFFER SIZE": "A", "ADDRESS": "6520 W FULLERTON AVE", "ZIP CODE": 60707, "CENSUS TRACT": 17031831500.000000, "LATITUDE": 41.923760, "LONGITUDE": -87.788748 }, "geometry": { "type": "Point", "coordinates": [ -87.788748, 41.92376 ] } },
{ "type": "Feature", "properties": { "STORE NAME": "ALDI'S", "SQUARE FEET": 15255, "BUFFER SIZE": "A", "ADDRESS": "4500 N BROADWAY", "ZIP CODE": 60640, "CENSUS TRACT": 17031830700.000000, "LATITUDE": 41.963789, "LONGITUDE": -87.656606 }, "geometry": { "type": "Point", "coordinates": [ -87.656606, 41.963789 ] } },
{ "type": "Feature", "properties": { "STORE NAME": "ALDI'S #08", "SQUARE FEET": 16890, "BUFFER SIZE": "A", "ADDRESS": "7333 S STATE ST", "ZIP CODE": 60619, "CENSUS TRACT": 17031691000.000000, "LATITUDE": 41.760881, "LONGITUDE": -87.624666 }, "geometry": { "type": "Point", "coordinates": [ -87.624666, 41.760881 ] } },
{ "type": "Feature", "properties": { "STORE NAME": "ALDI'S # 26", "SQUARE FEET": 16550, "BUFFER SIZE": "A", "ADDRESS": "10532 S INDIANAPOLIS AVE", "ZIP CODE": 60617, "CENSUS TRACT": 17031520100.000000, "LATITUDE": 41.703662, "LONGITUDE": -87.525712 }, "geometry": { "type": "Point", "coordinates": [ -87.525712, 41.703662 ] } },
{ "type": "Feature", "properties": { "STORE NAME": "ALDI'S #47", "SQUARE FEET": 16370, "BUFFER SIZE": "A", "ADDRESS": "1508 W 47TH ST", "ZIP CODE": 60609, "CENSUS TRACT": 17031842600.000000, "LATITUDE": 41.808741, "LONGITUDE": -87.662912 }, "geometry": { "type": "Point", "coordinates": [ -87.662912, 41.808741 ] } },
{ "type": "Feature", "properties": { "STORE NAME": "ALDI'S #93", "SQUARE FEET": 16890, "BUFFER SIZE": "A", "ADDRESS": "7545 S WESTERN AVE", "ZIP CODE": 60620, "CENSUS TRACT": 17031700100.000000, "LATITUDE": 41.756035, "LONGITUDE": -87.682858 }, "geometry": { "type": "Point", "coordinates": [ -87.682858, 41.756035 ] } },
{ "type": "Feature", "properties": { "STORE NAME": "ALDI'S FOODS BELMONT", "SQUARE FEET": 18600, "BUFFER SIZE": "A", "ADDRESS": "3320 W BELMONT AVE", "ZIP CODE": 60618, "CENSUS TRACT": 17031831100.000000, "LATITUDE": 41.939405, "LONGITUDE": -87.710901 }, "geometry": { "type": "Point", "coordinates": [ -87.710901, 41.939405 ] } },
{ "type": "Feature", "properties": { "STORE NAME": "ALLA'S FOOD", "SQUARE FEET": 3500, "BUFFER SIZE": "B", "ADDRESS": "2024 E 93RD ST", "ZIP CODE": 60617, "CENSUS TRACT": 17031480400.000000, "LATITUDE": 41.726240, "LONGITUDE": -87.574292 }, "geometry": { "type": "Point", "coordinates": [ -87.574292, 41.72624 ] } },
{ "type": "Feature", "properties": { "STORE NAME": "ALL STAR FOOD & LIQUOR", "SQUARE FEET": 4200, "BUFFER SIZE": "B", "ADDRESS": "2911 S ARCHER AVE", "ZIP CODE": 60608, "CENSUS TRACT": 17031600700.000000, "LATITUDE": 41.841484, "LONGITUDE": -87.658022 }, "geometry": { "type": "Point", "coordinates": [ -87.658022, 41.841484 ] } },
{ "type": "Feature", "properties": { "STORE NAME": "ALMUFLIHI FOOD & LIQUOR", "SQUARE FEET": 4500, "BUFFER SIZE": "B", "ADDRESS": "5404 S HALSTED ST", "ZIP CODE": 60609, "CENSUS TRACT": 17031612100.000000, "LATITUDE": 41.795871, "LONGITUDE": -87.645344 }, "geometry": { "type": "Point", "coordinates": [ -87.645344, 41.795871 ] } },
{ "type": "Feature", "properties": { "STORE NAME": "AM-PM FOOD MART & CELLULAR", "SQUARE FEET": 3500, "BUFFER SIZE": "B", "ADDRESS": "1924 E 87TH ST", "ZIP CODE": 60617, "CENSUS TRACT": 17031450300.000000, "LATITUDE": 41.737146, "LONGITUDE": -87.577081 }, "geometry": { "type": "Point", "coordinates": [ -87.577081, 41.737146 ] } },
{ "type": "Feature", "properties": { "STORE NAME": "ANAR INC", "SQUARE FEET": 10001, "BUFFER SIZE": "A", "ADDRESS": "935 E 79TH ST", "ZIP CODE": 60619, "CENSUS TRACT": 17031440101.000000, "LATITUDE": 41.751218, "LONGITUDE": -87.601401 }, "geometry": { "type": "Point", "coordinates": [ -87.601401, 41.751218 ] } },
{ "type": "Feature", "properties": { "STORE NAME": "ANDYS FRUIT RANCH", "SQUARE FEET": 15000, "BUFFER SIZE": "A", "ADDRESS": "4733 N KEDZIE AVE", "ZIP CODE": 60625, "CENSUS TRACT": 17031140800.000000, "LATITUDE": 41.967629, "LONGITUDE": -87.708304 }, "geometry": { "type": "Point", "coordinates": [ -87.708304, 41.967629 ] } },
{ "type": "Feature", "properties": { "STORE NAME": "A & R FOOD MART", "SQUARE FEET": 2500, "BUFFER SIZE": "B", "ADDRESS": "5952 W GRAND AVE", "ZIP CODE": 60639, "CENSUS TRACT": 17031191302.000000, "LATITUDE": 41.920596, "LONGITUDE": -87.775193 }, "geometry": { "type": "Point", "coordinates": [ -87.775193, 41.920596 ] } },
{ "type": "Feature", "properties": { "STORE NAME": "A & R FOOD MART", "SQUARE FEET": 3500, "BUFFER SIZE": "B", "ADDRESS": "5952 W GRAND AVE", "ZIP CODE": 60639, "CENSUS TRACT": 17031191302.000000, "LATITUDE": 41.920596, "LONGITUDE": -87.775193 }, "geometry": { "type": "Point", "coordinates": [ -87.775193, 41.920596 ] } },
{ "type": "Feature", "properties": { "STORE NAME": "ARISTA FOODS", "SQUARE FEET": 10000, "BUFFER SIZE": "A", "ADDRESS": "112 N MAY ST", "ZIP CODE": 60607, "CENSUS TRACT": 17031833000.000000, "LATITUDE": 41.883402, "LONGITUDE": -87.655725 }, "geometry": { "type": "Point", "coordinates": [ -87.655725, 41.883402 ] } },
{ "type": "Feature", "properties": { "STORE NAME": "ARMITAGE PRODUCE INC", "SQUARE FEET": 14340, "BUFFER SIZE": "A", "ADDRESS": "2007 N KIMBALL AVE", "ZIP CODE": 60647, "CENSUS TRACT": 17031221100.000000, "LATITUDE": 41.917562, "LONGITUDE": -87.711755 }, "geometry": { "type": "Point", "coordinates": [ -87.711755, 41.917562 ] } },
{ "type": "Feature", "properties": { "STORE NAME": "AROUND THE CLOCK", "SQUARE FEET": 3000, "BUFFER SIZE": "B", "ADDRESS": "1605 W HOWARD ST", "ZIP CODE": 60626, "CENSUS TRACT": 17031010202.000000, "LATITUDE": 42.019265, "LONGITUDE": -87.671572 }, "geometry": { "type": "Point", "coordinates": [ -87.671572, 42.019265 ] } },
{ "type": "Feature", "properties": { "STORE NAME": "ASHLAND FOOD AND LIQUORS", "SQUARE FEET": 10001, "BUFFER SIZE": "A", "ADDRESS": "1554 W 95TH ST", "ZIP CODE": 60643, "CENSUS TRACT": 17031730201.000000, "LATITUDE": 41.721327, "LONGITUDE": -87.662534 }, "geometry": { "type": "Point", "coordinates": [ -87.662534, 41.721327 ] } },
{ "type": "Feature", "properties": { "STORE NAME": "ATHENS GROCERY", "SQUARE FEET": 2600, "BUFFER SIZE": "B", "ADDRESS": "324 S HALSTED ST", "ZIP CODE": 60661, "CENSUS TRACT": 17031833100.000000, "LATITUDE": 41.877162, "LONGITUDE": -87.647364 }, "geometry": { "type": "Point", "coordinates": [ -87.647364, 41.877162 ] } },
{ "type": "Feature", "properties": { "STORE NAME": "AVENUE FOOD MAR INC", "SQUARE FEET": 18000, "BUFFER SIZE": "A", "ADDRESS": "6850 W BELMONT AVE", "ZIP CODE": 60634, "CENSUS TRACT": 17031171000.000000, "LATITUDE": 41.938237, "LONGITUDE": -87.797760 }, "geometry": { "type": "Point", "coordinates": [ -87.79776, 41.938237 ] } },
{ "type": "Feature", "properties": { "STORE NAME": "AWAMI BAZAAR & ZABIHA MEAT", "SQUARE FEET": 2500, "BUFFER SIZE": "B", "ADDRESS": "2340 W DEVON AVE", "ZIP CODE": 60659, "CENSUS TRACT": 17031020500.000000, "LATITUDE": 41.997854, "LONGITUDE": -87.689064 }, "geometry": { "type": "Point", "coordinates": [ -87.689064, 41.997854 ] } },
{ "type": "Feature", "properties": { "STORE NAME": "Baltimore Food & Liquor", "SQUARE FEET": 3404, "BUFFER SIZE": "B", "ADDRESS": "13322 S BALTIMORE AVE", "ZIP CODE": 60633, "CENSUS TRACT": 17031550100.000000, "LATITUDE": 41.652965, "LONGITUDE": -87.547299 }, "geometry": { "type": "Point", "coordinates": [ -87.547299, 41.652965 ] } },
{ "type": "Feature", "properties": { "STORE NAME": "BARI", "SQUARE FEET": 2500, "BUFFER SIZE": "B", "ADDRESS": "1120 W GRAND AVE", "ZIP CODE": 60622, "CENSUS TRACT": 17031243500.000000, "LATITUDE": 41.891210, "LONGITUDE": -87.655560 }, "geometry": { "type": "Point", "coordinates": [ -87.65556, 41.89121 ] } },
{ "type": "Feature", "properties": { "STORE NAME": "BERBATE FRUIT MARKET", "SQUARE FEET": 2500, "BUFFER SIZE": "B", "ADDRESS": "3956 N NARRAGANSETT AVE", "ZIP CODE": 60634, "CENSUS TRACT": 17031170300.000000, "LATITUDE": 41.952732, "LONGITUDE": -87.786698 }, "geometry": { "type": "Point", "coordinates": [ -87.786698, 41.952732 ] } },
{ "type": "Feature", "properties": { "STORE NAME": "B & H FOOD & GROCERY", "SQUARE FEET": 4500, "BUFFER SIZE": "B", "ADDRESS": "713 S ALBANY AVE", "ZIP CODE": 60612, "CENSUS TRACT": 17031837300.000000, "LATITUDE": 41.872350, "LONGITUDE": -87.703273 }, "geometry": { "type": "Point", "coordinates": [ -87.703273, 41.87235 ] } },
{ "type": "Feature", "properties": { "STORE NAME": "BIG APPLE FINER FOODS INC", "SQUARE FEET": 9000, "BUFFER SIZE": "B", "ADDRESS": "2345 N CLARK ST", "ZIP CODE": 60614, "CENSUS TRACT": 17031071400.000000, "LATITUDE": 41.924966, "LONGITUDE": -87.639926 }, "geometry": { "type": "Point", "coordinates": [ -87.639926, 41.924966 ] } },
{ "type": "Feature", "properties": { "STORE NAME": "BOB'S LIQUORS & GROCERIES", "SQUARE FEET": 10001, "BUFFER SIZE": "A", "ADDRESS": "5069 W MADISON ST", "ZIP CODE": 60644, "CENSUS TRACT": 17031252201.000000, "LATITUDE": 41.880296, "LONGITUDE": -87.752494 }, "geometry": { "type": "Point", "coordinates": [ -87.752494, 41.880296 ] } },
{ "type": "Feature", "properties": { "STORE NAME": "BOCKWINKELS", "SQUARE FEET": 7200, "BUFFER SIZE": "B", "ADDRESS": "222 N COLUMBUS DR", "ZIP CODE": 60601, "CENSUS TRACT": 17031320100.000000, "LATITUDE": 41.886339, "LONGITUDE": -87.620836 }, "geometry": { "type": "Point", "coordinates": [ -87.620836, 41.886339 ] } },
{ "type": "Feature", "properties": { "STORE NAME": "BOULEVARD FOOD & LIQUOR LLC", "SQUARE FEET": 3350, "BUFFER SIZE": "B", "ADDRESS": "5922 W IRVING PARK RD", "ZIP CODE": 60634, "CENSUS TRACT": 17031150402.000000, "LATITUDE": 41.953183, "LONGITUDE": -87.775259 }, "geometry": { "type": "Point", "coordinates": [ -87.775259, 41.953183 ] } },
{ "type": "Feature", "properties": { "STORE NAME": "BROADWAY SUPERMARKET", "SQUARE FEET": 15000, "BUFFER SIZE": "A", "ADDRESS": "4879 N BROADWAY", "ZIP CODE": 60640, "CENSUS TRACT": 17031031200.000000, "LATITUDE": 41.971171, "LONGITUDE": -87.659581 }, "geometry": { "type": "Point", "coordinates": [ -87.659581, 41.971171 ] } },
{ "type": "Feature", "properties": { "STORE NAME": "BUDGET FINER FOODS", "SQUARE FEET": 3200, "BUFFER SIZE": "B", "ADDRESS": "6604 N SHERIDAN RD", "ZIP CODE": 60626, "CENSUS TRACT": 17031010502.000000, "LATITUDE": 42.002726, "LONGITUDE": -87.660938 }, "geometry": { "type": "Point", "coordinates": [ -87.660938, 42.002726 ] } },
{ "type": "Feature", "properties": { "STORE NAME": "BURNHAM PLAZA MART", "SQUARE FEET": 2950, "BUFFER SIZE": "B", "ADDRESS": "828 S WABASH AVE", "ZIP CODE": 60605, "CENSUS TRACT": 17031320600.000000, "LATITUDE": 41.871444, "LONGITUDE": -87.626075 }, "geometry": { "type": "Point", "coordinates": [ -87.626075, 41.871444 ] } },
{ "type": "Feature", "properties": { "STORE NAME": "BUSY BEE SUPERMARKET", "SQUARE FEET": 2500, "BUFFER SIZE": "B", "ADDRESS": "5659 S ASHLAND AVE", "ZIP CODE": 60636, "CENSUS TRACT": 17031670200.000000, "LATITUDE": 41.790480, "LONGITUDE": -87.664345 }, "geometry": { "type": "Point", "coordinates": [ -87.664345, 41.79048 ] } },
{ "type": "Feature", "properties": { "STORE NAME": "BUY -N- SAVE", "SQUARE FEET": 8000, "BUFFER SIZE": "B", "ADDRESS": "209 E 103RD ST", "ZIP CODE": 60628, "CENSUS TRACT": 17031490902.000000, "LATITUDE": 41.707135, "LONGITUDE": -87.618242 }, "geometry": { "type": "Point", "coordinates": [ -87.618242, 41.707135 ] } },
{ "type": "Feature", "properties": { "STORE NAME": "CAESAR'S FOODS INC", "SQUARE FEET": 10001, "BUFFER SIZE": "A", "ADDRESS": "901 N DAMEN AVE", "ZIP CODE": 60622, "CENSUS TRACT": 17031242200.000000, "LATITUDE": 41.897779, "LONGITUDE": -87.676959 }, "geometry": { "type": "Point", "coordinates": [ -87.676959, 41.897779 ] } },
{ "type": "Feature", "properties": { "STORE NAME": "CALABRIA IMPORTS, INC.", "SQUARE FEET": 3100, "BUFFER SIZE": "B", "ADDRESS": "1905 W 103RD ST", "ZIP CODE": 60643, "CENSUS TRACT": 17031720700.000000, "LATITUDE": 41.706473, "LONGITUDE": -87.669355 }, "geometry": { "type": "Point", "coordinates": [ -87.669355, 41.706473 ] } },
{ "type": "Feature", "properties": { "STORE NAME": "CALMA OPTIMAL DELI, INC.", "SQUARE FEET": 3000, "BUFFER SIZE": "B", "ADDRESS": "5155 W ADDISON ST", "ZIP CODE": 60641, "CENSUS TRACT": 17031151001.000000, "LATITUDE": 41.945895, "LONGITUDE": -87.756646 }, "geometry": { "type": "Point", "coordinates": [ -87.756646, 41.945895 ] } },
{ "type": "Feature", "properties": { "STORE NAME": "CARNICERIA DEL RIO", "SQUARE FEET": 3000, "BUFFER SIZE": "B", "ADDRESS": "2714 W CERMAK RD", "ZIP CODE": 60608, "CENSUS TRACT": 17031840700.000000, "LATITUDE": 41.852035, "LONGITUDE": -87.693697 }, "geometry": { "type": "Point", "coordinates": [ -87.693697, 41.852035 ] } },
{ "type": "Feature", "properties": { "STORE NAME": "CARNICERIA EL PORVENIR", "SQUARE FEET": 2500, "BUFFER SIZE": "B", "ADDRESS": "150 E KENSINGTON AVE", "ZIP CODE": 60628, "CENSUS TRACT": 17031530100.000000, "LATITUDE": 41.684063, "LONGITUDE": -87.618743 }, "geometry": { "type": "Point", "coordinates": [ -87.618743, 41.684063 ] } },
{ "type": "Feature", "properties": { "STORE NAME": "CARNICERIA&FRUTERIA EL MITOTE", "SQUARE FEET": 4500, "BUFFER SIZE": "B", "ADDRESS": "4459 W BELMONT AVE", "ZIP CODE": 60641, "CENSUS TRACT": 17031200100.000000, "LATITUDE": 41.938820, "LONGITUDE": -87.739434 }, "geometry": { "type": "Point", "coordinates": [ -87.739434, 41.93882 ] } },
{ "type": "Feature", "properties": { "STORE NAME": "CARNICERIA GUANAJUATO", "SQUARE FEET": 9325, "BUFFER SIZE": "B", "ADDRESS": "5250 W FULLERTON AVE", "ZIP CODE": 60639, "CENSUS TRACT": 17031190702.000000, "LATITUDE": 41.924189, "LONGITUDE": -87.758230 }, "geometry": { "type": "Point", "coordinates": [ -87.75823, 41.924189 ] } },
{ "type": "Feature", "properties": { "STORE NAME": "CARNICERIA GUANAJUATO #3", "SQUARE FEET": 9000, "BUFFER SIZE": "B", "ADDRESS": "3132 N CALIFORNIA AVE", "ZIP CODE": 60618, "CENSUS TRACT": 17031210800.000000, "LATITUDE": 41.938570, "LONGITUDE": -87.697946 }, "geometry": { "type": "Point", "coordinates": [ -87.697946, 41.93857 ] } },
{ "type": "Feature", "properties": { "STORE NAME": "CARNICERIA GUANJUATO #3", "SQUARE FEET": 8800, "BUFFER SIZE": "B", "ADDRESS": "1436 N ASHLAND AVE", "ZIP CODE": 60622, "CENSUS TRACT": 17031241500.000000, "LATITUDE": 41.908115, "LONGITUDE": -87.667764 }, "geometry": { "type": "Point", "coordinates": [ -87.667764, 41.908115 ] } },
{ "type": "Feature", "properties": { "STORE NAME": "CARNICERIA JIMENEZ #2", "SQUARE FEET": 19000, "BUFFER SIZE": "A", "ADDRESS": "3850 W FULLERTON AVE", "ZIP CODE": 60647, "CENSUS TRACT": 17031220701.000000, "LATITUDE": 41.924628, "LONGITUDE": -87.723953 }, "geometry": { "type": "Point", "coordinates": [ -87.723953, 41.924628 ] } },
{ "type": "Feature", "properties": { "STORE NAME": "CARNICERIA JIMENEZ INC", "SQUARE FEET": 16000, "BUFFER SIZE": "A", "ADDRESS": "4204 W NORTH AVE", "ZIP CODE": 60639, "CENSUS TRACT": 17031230500.000000, "LATITUDE": 41.909925, "LONGITUDE": -87.731557 }, "geometry": { "type": "Point", "coordinates": [ -87.731557, 41.909925 ] } },
{ "type": "Feature", "properties": { "STORE NAME": "CARNICERIA LA AZTECA", "SQUARE FEET": 2500, "BUFFER SIZE": "B", "ADDRESS": "7067 N CLARK ST", "ZIP CODE": 60626, "CENSUS TRACT": 17031010702.000000, "LATITUDE": 42.010963, "LONGITUDE": -87.674215 }, "geometry": { "type": "Point", "coordinates": [ -87.674215, 42.010963 ] } },
{ "type": "Feature", "properties": { "STORE NAME": "CARNICERIA LA GLORIA", "SQUARE FEET": 6500, "BUFFER SIZE": "B", "ADDRESS": "2551 W 51ST ST", "ZIP CODE": 60632, "CENSUS TRACT": 17031630500.000000, "LATITUDE": 41.800969, "LONGITUDE": -87.688722 }, "geometry": { "type": "Point", "coordinates": [ -87.688722, 41.800969 ] } },
{ "type": "Feature", "properties": { "STORE NAME": "CARNICERIA LA GLORIA NO. 2, INC.", "SQUARE FEET": 7500, "BUFFER SIZE": "B", "ADDRESS": "2744 W 55TH ST", "ZIP CODE": 60632, "CENSUS TRACT": 17031630500.000000, "LATITUDE": 41.793812, "LONGITUDE": -87.693151 }, "geometry": { "type": "Point", "coordinates": [ -87.693151, 41.793812 ] } },
{ "type": "Feature", "properties": { "STORE NAME": "CARNICERIA LA HACIENDA, INC.", "SQUARE FEET": 4000, "BUFFER SIZE": "B", "ADDRESS": "3459 W 59TH ST", "ZIP CODE": 60629, "CENSUS TRACT": 17031660400.000000, "LATITUDE": 41.786024, "LONGITUDE": -87.710605 }, "geometry": { "type": "Point", "coordinates": [ -87.710605, 41.786024 ] } },
{ "type": "Feature", "properties": { "STORE NAME": "CARNICERIA LA MEJOR PRODUCE, INC.", "SQUARE FEET": 4500, "BUFFER SIZE": "B", "ADDRESS": "2915 N MILWAUKEE AVE", "ZIP CODE": 60618, "CENSUS TRACT": 17031210602.000000, "LATITUDE": 41.934314, "LONGITUDE": -87.715772 }, "geometry": { "type": "Point", "coordinates": [ -87.715772, 41.934314 ] } },
{ "type": "Feature", "properties": { "STORE NAME": "CARNICERIA LA VILLA #2", "SQUARE FEET": 3289, "BUFFER SIZE": "B", "ADDRESS": "5800 W GRAND AVE", "ZIP CODE": 60639, "CENSUS TRACT": 17031191302.000000, "LATITUDE": 41.919775, "LONGITUDE": -87.770727 }, "geometry": { "type": "Point", "coordinates": [ -87.770727, 41.919775 ] } },
{ "type": "Feature", "properties": { "STORE NAME": "CARNICERIA RICARDO", "SQUARE FEET": 5000, "BUFFER SIZE": "B", "ADDRESS": "4419 W DIVERSEY AVE", "ZIP CODE": 60639, "CENSUS TRACT": 17031200200.000000, "LATITUDE": 41.931541, "LONGITUDE": -87.737573 }, "geometry": { "type": "Point", "coordinates": [ -87.737573, 41.931541 ] } },
{ "type": "Feature", "properties": { "STORE NAME": "CENTRAL PARK FOODS INC", "SQUARE FEET": 8000, "BUFFER SIZE": "B", "ADDRESS": "3604 W GRAND AVE", "ZIP CODE": 60651, "CENSUS TRACT": 17031231200.000000, "LATITUDE": 41.902474, "LONGITUDE": -87.716817 }, "geometry": { "type": "Point", "coordinates": [ -87.716817, 41.902474 ] } },
{ "type": "Feature", "properties": { "STORE NAME": "CENTRO MARKET", "SQUARE FEET": 9100, "BUFFER SIZE": "B", "ADDRESS": "5153 S KEDZIE AVE", "ZIP CODE": 60632, "CENSUS TRACT": 17031630400.000000, "LATITUDE": 41.799257, "LONGITUDE": -87.703575 }, "geometry": { "type": "Point", "coordinates": [ -87.703575, 41.799257 ] } },
{ "type": "Feature", "properties": { "STORE NAME": "CERMAK PRODUCE", "SQUARE FEET": 10000, "BUFFER SIZE": "A", "ADDRESS": "4800 W DIVERSEY AVE", "ZIP CODE": 60639, "CENSUS TRACT": 17031190200.000000, "LATITUDE": 41.931641, "LONGITUDE": -87.746720 }, "geometry": { "type": "Point", "coordinates": [ -87.74672, 41.931641 ] } },
{ "type": "Feature", "properties": { "STORE NAME": "CERMAK PRODUCE", "SQUARE FEET": 14000, "BUFFER SIZE": "A", "ADDRESS": "4401 W ARMITAGE AVE", "ZIP CODE": 60639, "CENSUS TRACT": 17031831200.000000, "LATITUDE": 41.916934, "LONGITUDE": -87.736387 }, "geometry": { "type": "Point", "coordinates": [ -87.736387, 41.916934 ] } },
{ "type": "Feature", "properties": { "STORE NAME": "CERMAK PRODUCE", "SQUARE FEET": 15000, "BUFFER SIZE": "A", "ADDRESS": "1711 W CERMAK RD", "ZIP CODE": 60608, "CENSUS TRACT": 17031843200.000000, "LATITUDE": 41.852168, "LONGITUDE": -87.668975 }, "geometry": { "type": "Point", "coordinates": [ -87.668975, 41.852168 ] } },
{ "type": "Feature", "properties": { "STORE NAME": "CERMAK PRODUCE", "SQUARE FEET": 17000, "BUFFER SIZE": "A", "ADDRESS": "3311 W 26TH ST", "ZIP CODE": 60623, "CENSUS TRACT": 17031840800.000000, "LATITUDE": 41.844367, "LONGITUDE": -87.707898 }, "geometry": { "type": "Point", "coordinates": [ -87.707898, 41.844367 ] } },
{ "type": "Feature", "properties": { "STORE NAME": "CERMAK PRODUCE", "SQUARE FEET": 25000, "BUFFER SIZE": "A", "ADDRESS": "5220 S PULASKI RD", "ZIP CODE": 60632, "CENSUS TRACT": 17031620200.000000, "LATITUDE": 41.797992, "LONGITUDE": -87.723444 }, "geometry": { "type": "Point", "coordinates": [ -87.723444, 41.797992 ] } },
{ "type": "Feature", "properties": { "STORE NAME": "CERMAK PRODUCE", "SQUARE FEET": 29000, "BUFFER SIZE": "A", "ADDRESS": "4234 N KEDZIE AVE", "ZIP CODE": 60618, "CENSUS TRACT": 17031160501.000000, "LATITUDE": 41.958597, "LONGITUDE": -87.708310 }, "geometry": { "type": "Point", "coordinates": [ -87.70831, 41.958597 ] } },
{ "type": "Feature", "properties": { "STORE NAME": "CERMAK PRODUCE #5 LTD", "SQUARE FEET": 10000, "BUFFER SIZE": "A", "ADDRESS": "3435 S ARCHER AVE", "ZIP CODE": 60608, "CENSUS TRACT": 17031840300.000000, "LATITUDE": 41.831350, "LONGITUDE": -87.675848 }, "geometry": { "type": "Point", "coordinates": [ -87.675848, 41.83135 ] } },
{ "type": "Feature", "properties": { "STORE NAME": "CERMAK PRODUCE NO.4", "SQUARE FEET": 17000, "BUFFER SIZE": "A", "ADDRESS": "2701 W NORTH AVE", "ZIP CODE": 60647, "CENSUS TRACT": 17031241000.000000, "LATITUDE": 41.910132, "LONGITUDE": -87.694600 }, "geometry": { "type": "Point", "coordinates": [ -87.6946, 41.910132 ] } },
{ "type": "Feature", "properties": { "STORE NAME": "CHARLIES  SUPERMARKET INC.", "SQUARE FEET": 2500, "BUFFER SIZE": "B", "ADDRESS": "2941 W MONTROSE AVE", "ZIP CODE": 60618, "CENSUS TRACT": 17031160601.000000, "LATITUDE": 41.961114, "LONGITUDE": -87.702587 }, "geometry": { "type": "Point", "coordinates": [ -87.702587, 41.961114 ] } },
{ "type": "Feature", "properties": { "STORE NAME": "CHATHAM FOOD MARKET", "SQUARE FEET": 4500, "BUFFER SIZE": "B", "ADDRESS": "327 E 79TH ST", "ZIP CODE": 60619, "CENSUS TRACT": 17031440300.000000, "LATITUDE": 41.750973, "LONGITUDE": -87.616958 }, "geometry": { "type": "Point", "coordinates": [ -87.616958, 41.750973 ] } },
{ "type": "Feature", "properties": { "STORE NAME": "CHICAGO FOOD CORP", "SQUARE FEET": 10000, "BUFFER SIZE": "A", "ADDRESS": "5800 N PULASKI RD", "ZIP CODE": 60646, "CENSUS TRACT": 17031130200.000000, "LATITUDE": 41.985928, "LONGITUDE": -87.728663 }, "geometry": { "type": "Point", "coordinates": [ -87.728663, 41.985928 ] } },
{ "type": "Feature", "properties": { "STORE NAME": "CHICAGO GROCERS", "SQUARE FEET": 2500, "BUFFER SIZE": "B", "ADDRESS": "2122 W DEVON AVE", "ZIP CODE": 60659, "CENSUS TRACT": 17031020500.000000, "LATITUDE": 41.997946, "LONGITUDE": -87.683569 }, "geometry": { "type": "Point", "coordinates": [ -87.683569, 41.997946 ] } },
{ "type": "Feature", "properties": { "STORE NAME": "Chicago Health - Maple Street", "SQUARE FEET": 2900, "BUFFER SIZE": "B", "ADDRESS": "22 W MAPLE ST", "ZIP CODE": 60610, "CENSUS TRACT": 17031081100.000000, "LATITUDE": 41.901983, "LONGITUDE": -87.629263 }, "geometry": { "type": "Point", "coordinates": [ -87.629263, 41.901983 ] } },
{ "type": "Feature", "properties": { "STORE NAME": "CHICAGO PRODUCE", "SQUARE FEET": 13500, "BUFFER SIZE": "A", "ADDRESS": "3500 W LAWRENCE AVE", "ZIP CODE": 60625, "CENSUS TRACT": 17031140200.000000, "LATITUDE": 41.968485, "LONGITUDE": -87.715871 }, "geometry": { "type": "Point", "coordinates": [ -87.715871, 41.968485 ] } },
{ "type": "Feature", "properties": { "STORE NAME": "CICERO DELI INC.", "SQUARE FEET": 3600, "BUFFER SIZE": "B", "ADDRESS": "3206 N CICERO AVE", "ZIP CODE": 60641, "CENSUS TRACT": 17031151002.000000, "LATITUDE": 41.939047, "LONGITUDE": -87.747022 }, "geometry": { "type": "Point", "coordinates": [ -87.747022, 41.939047 ] } },
{ "type": "Feature", "properties": { "STORE NAME": "CITY GROCERY", "SQUARE FEET": 5000, "BUFFER SIZE": "B", "ADDRESS": "405 N WABASH AVE", "ZIP CODE": 60611, "CENSUS TRACT": 17031081500.000000, "LATITUDE": 41.889465, "LONGITUDE": -87.626509 }, "geometry": { "type": "Point", "coordinates": [ -87.626509, 41.889465 ] } },
{ "type": "Feature", "properties": { "STORE NAME": "CLARENDON FOOD MART INC", "SQUARE FEET": 10000, "BUFFER SIZE": "A", "ADDRESS": "4183 N CLARENDON AVE", "ZIP CODE": 60613, "CENSUS TRACT": 17031031400.000000, "LATITUDE": 41.958005, "LONGITUDE": -87.649654 }, "geometry": { "type": "Point", "coordinates": [ -87.649654, 41.958005 ] } },
{ "type": "Feature", "properties": { "STORE NAME": "CLYBOURN MARKET", "SQUARE FEET": 3500, "BUFFER SIZE": "B", "ADDRESS": "2807 N CLYBOURN AVE", "ZIP CODE": 60618, "CENSUS TRACT": 17031051400.000000, "LATITUDE": 41.932579, "LONGITUDE": -87.678327 }, "geometry": { "type": "Point", "coordinates": [ -87.678327, 41.932579 ] } },
{ "type": "Feature", "properties": { "STORE NAME": "COMMERCIAL GROCERY", "SQUARE FEET": 2500, "BUFFER SIZE": "B", "ADDRESS": "3004 E 100TH ST", "ZIP CODE": 60617, "CENSUS TRACT": 17031510100.000000, "LATITUDE": 41.713498, "LONGITUDE": -87.550733 }, "geometry": { "type": "Point", "coordinates": [ -87.550733, 41.713498 ] } },
{ "type": "Feature", "properties": { "STORE NAME": "CORCORANS PANTRY INC", "SQUARE FEET": 4200, "BUFFER SIZE": "B", "ADDRESS": "1105 W BRYN MAWR AVE", "ZIP CODE": 60660, "CENSUS TRACT": 17031030701.000000, "LATITUDE": 41.983545, "LONGITUDE": -87.658268 }, "geometry": { "type": "Point", "coordinates": [ -87.658268, 41.983545 ] } },
{ "type": "Feature", "properties": { "STORE NAME": "COTTAGE GROVE FOOD MART", "SQUARE FEET": 4000, "BUFFER SIZE": "B", "ADDRESS": "6307 S COTTAGE GROVE AVE", "ZIP CODE": 60637, "CENSUS TRACT": 17031420800.000000, "LATITUDE": 41.780152, "LONGITUDE": -87.605778 }, "geometry": { "type": "Point", "coordinates": [ -87.605778, 41.780152 ] } },
{ "type": "Feature", "properties": { "STORE NAME": "COUNTY FAIR FOODS", "SQUARE FEET": 10001, "BUFFER SIZE": "A", "ADDRESS": "10800 S WESTERN AVE", "ZIP CODE": 60643, "CENSUS TRACT": 17031750300.000000, "LATITUDE": 41.697238, "LONGITUDE": -87.681475 }, "geometry": { "type": "Point", "coordinates": [ -87.681475, 41.697238 ] } },
{ "type": "Feature", "properties": { "STORE NAME": "CRESPO'S FOOD MART", "SQUARE FEET": 2800, "BUFFER SIZE": "B", "ADDRESS": "4353 W MADISON ST", "ZIP CODE": 60624, "CENSUS TRACT": 17031260600.000000, "LATITUDE": 41.880505, "LONGITUDE": -87.735123 }, "geometry": { "type": "Point", "coordinates": [ -87.735123, 41.880505 ] } },
{ "type": "Feature", "properties": { "STORE NAME": "CUENCA'S BAKERY & GROCERIES", "SQUARE FEET": 4500, "BUFFER SIZE": "B", "ADDRESS": "4229 W MONTROSE AVE", "ZIP CODE": 60641, "CENSUS TRACT": 17031160300.000000, "LATITUDE": 41.960768, "LONGITUDE": -87.733947 }, "geometry": { "type": "Point", "coordinates": [ -87.733947, 41.960768 ] } },
{ "type": "Feature", "properties": { "STORE NAME": "CUPBOARD FOOD & LIQUOR", "SQUARE FEET": 3000, "BUFFER SIZE": "B", "ADDRESS": "3260 W 55TH ST", "ZIP CODE": 60632, "CENSUS TRACT": 17031630300.000000, "LATITUDE": 41.793589, "LONGITUDE": -87.705946 }, "geometry": { "type": "Point", "coordinates": [ -87.705946, 41.793589 ] } },
{ "type": "Feature", "properties": { "STORE NAME": "D & A FOOD & LIQUOR", "SQUARE FEET": 5500, "BUFFER SIZE": "B", "ADDRESS": "1601 W GARFIELD BLVD", "ZIP CODE": 60636, "CENSUS TRACT": 17031670300.000000, "LATITUDE": 41.793554, "LONGITUDE": -87.664638 }, "geometry": { "type": "Point", "coordinates": [ -87.664638, 41.793554 ] } },
{ "type": "Feature", "properties": { "STORE NAME": "DANNY'S FRESH MARKET", "SQUARE FEET": 14405, "BUFFER SIZE": "A", "ADDRESS": "2140 N WESTERN AVE", "ZIP CODE": 60647, "CENSUS TRACT": 17031221500.000000, "LATITUDE": 41.921096, "LONGITUDE": -87.687671 }, "geometry": { "type": "Point", "coordinates": [ -87.687671, 41.921096 ] } },
{ "type": "Feature", "properties": { "STORE NAME": "DEVON MARKET", "SQUARE FEET": 18500, "BUFFER SIZE": "A", "ADDRESS": "1440 W DEVON AVE", "ZIP CODE": 60660, "CENSUS TRACT": 17031010600.000000, "LATITUDE": 41.998228, "LONGITUDE": -87.667104 }, "geometry": { "type": "Point", "coordinates": [ -87.667104, 41.998228 ] } },
{ "type": "Feature", "properties": { "STORE NAME": "DIA FOOD & LIQUOR", "SQUARE FEET": 4500, "BUFFER SIZE": "B", "ADDRESS": "1478 W 115TH ST", "ZIP CODE": 60643, "CENSUS TRACT": 17031750600.000000, "LATITUDE": 41.684956, "LONGITUDE": -87.659726 }, "geometry": { "type": "Point", "coordinates": [ -87.659726, 41.684956 ] } },
{ "type": "Feature", "properties": { "STORE NAME": "DILILAH GROCERY", "SQUARE FEET": 3125, "BUFFER SIZE": "B", "ADDRESS": "1759 W 21ST ST", "ZIP CODE": 60608, "CENSUS TRACT": 17031310800.000000, "LATITUDE": 41.853968, "LONGITUDE": -87.670870 }, "geometry": { "type": "Point", "coordinates": [ -87.67087, 41.853968 ] } },
{ "type": "Feature", "properties": { "STORE NAME": "DISCOUNT MEAT COMPANY", "SQUARE FEET": 4160, "BUFFER SIZE": "B", "ADDRESS": "339 W 79TH ST", "ZIP CODE": 60620, "CENSUS TRACT": 17031842400.000000, "LATITUDE": 41.750687, "LONGITUDE": -87.633381 }, "geometry": { "type": "Point", "coordinates": [ -87.633381, 41.750687 ] } },
{ "type": "Feature", "properties": { "STORE NAME": "DISCOUNT PANTRY CORPORATION", "SQUARE FEET": 3600, "BUFFER SIZE": "B", "ADDRESS": "4153 W 63RD ST", "ZIP CODE": 60629, "CENSUS TRACT": 17031650301.000000, "LATITUDE": 41.778493, "LONGITUDE": -87.727328 }, "geometry": { "type": "Point", "coordinates": [ -87.727328, 41.778493 ] } },
{ "type": "Feature", "properties": { "STORE NAME": "DOLLAR DEALS & UP", "SQUARE FEET": 2500, "BUFFER SIZE": "B", "ADDRESS": "2057 N PULASKI RD", "ZIP CODE": 60639, "CENSUS TRACT": 17031200402.000000, "LATITUDE": 41.918891, "LONGITUDE": -87.726465 }, "geometry": { "type": "Point", "coordinates": [ -87.726465, 41.918891 ] } },
{ "type": "Feature", "properties": { "STORE NAME": "DOLLAR & LINEN", "SQUARE FEET": 5800, "BUFFER SIZE": "B", "ADDRESS": "1853 W 87TH ST", "ZIP CODE": 60620, "CENSUS TRACT": 17031711300.000000, "LATITUDE": 41.735589, "LONGITUDE": -87.669952 }, "geometry": { "type": "Point", "coordinates": [ -87.669952, 41.735589 ] } },
{ "type": "Feature", "properties": { "STORE NAME": "DOMINICK'S", "SQUARE FEET": 59488, "BUFFER SIZE": "A", "ADDRESS": "6623 N DAMEN AVE", "ZIP CODE": 60645, "CENSUS TRACT": 17031020500.000000, "LATITUDE": 42.002223, "LONGITUDE": -87.680129 }, "geometry": { "type": "Point", "coordinates": [ -87.680129, 42.002223 ] } },
{ "type": "Feature", "properties": { "STORE NAME": "DOMINICK'S # 1100", "SQUARE FEET": 10001, "BUFFER SIZE": "A", "ADDRESS": "3145 S ASHLAND AVE", "ZIP CODE": 60608, "CENSUS TRACT": 17031840400.000000, "LATITUDE": 41.836468, "LONGITUDE": -87.665567 }, "geometry": { "type": "Point", "coordinates": [ -87.665567, 41.836468 ] } },
{ "type": "Feature", "properties": { "STORE NAME": "DOMINICK'S # 113\/1113", "SQUARE FEET": 10001, "BUFFER SIZE": "A", "ADDRESS": "6312 N NAGLE AVE", "ZIP CODE": 60646, "CENSUS TRACT": 17031100200.000000, "LATITUDE": 41.995985, "LONGITUDE": -87.787637 }, "geometry": { "type": "Point", "coordinates": [ -87.787637, 41.995985 ] } },
{ "type": "Feature", "properties": { "STORE NAME": "DOMINICK'S # 12\/0012", "SQUARE FEET": 10001, "BUFFER SIZE": "A", "ADDRESS": "6009 N BROADWAY", "ZIP CODE": 60660, "CENSUS TRACT": 17031030101.000000, "LATITUDE": 41.991182, "LONGITUDE": -87.660155 }, "geometry": { "type": "Point", "coordinates": [ -87.660155, 41.991182 ] } },
{ "type": "Feature", "properties": { "STORE NAME": "DOMINICK'S # 130\/1130", "SQUARE FEET": 10001, "BUFFER SIZE": "A", "ADDRESS": "2101 E 71ST ST", "ZIP CODE": 60649, "CENSUS TRACT": 17031430600.000000, "LATITUDE": 41.765990, "LONGITUDE": -87.573787 }, "geometry": { "type": "Point", "coordinates": [ -87.573787, 41.76599 ] } },
{ "type": "Feature", "properties": { "STORE NAME": "DOMINICK'S #147\/1147", "SQUARE FEET": 68000, "BUFFER SIZE": "A", "ADDRESS": "1340 S CANAL ST", "ZIP CODE": 60607, "CENSUS TRACT": 17031841900.000000, "LATITUDE": 41.864521, "LONGITUDE": -87.639304 }, "geometry": { "type": "Point", "coordinates": [ -87.639304, 41.864521 ] } },
{ "type": "Feature", "properties": { "STORE NAME": "DOMINICK'S #153\/2153", "SQUARE FEET": 68000, "BUFFER SIZE": "A", "ADDRESS": "424 W DIVISION ST", "ZIP CODE": 60610, "CENSUS TRACT": 17031080400.000000, "LATITUDE": 41.903884, "LONGITUDE": -87.639437 }, "geometry": { "type": "Point", "coordinates": [ -87.639437, 41.903884 ] } },
{ "type": "Feature", "properties": { "STORE NAME": "DOMINICK'S #160\/1698", "SQUARE FEET": 72000, "BUFFER SIZE": "A", "ADDRESS": "1763 W HOWARD ST", "ZIP CODE": 60626, "CENSUS TRACT": 17031010202.000000, "LATITUDE": 42.019289, "LONGITUDE": -87.675059 }, "geometry": { "type": "Point", "coordinates": [ -87.675059, 42.019289 ] } },
{ "type": "Feature", "properties": { "STORE NAME": "Dominick's #1703", "SQUARE FEET": 49320, "BUFFER SIZE": "A", "ADDRESS": "255 E GRAND AVE", "ZIP CODE": 60611, "CENSUS TRACT": 17031081403.000000, "LATITUDE": 41.891690, "LONGITUDE": -87.620444 }, "geometry": { "type": "Point", "coordinates": [ -87.620444, 41.89169 ] } },
{ "type": "Feature", "properties": { "STORE NAME": "DOMINICK'S #1875", "SQUARE FEET": 39000, "BUFFER SIZE": "A", "ADDRESS": "1 N HALSTED ST", "ZIP CODE": 60661, "CENSUS TRACT": 17031280100.000000, "LATITUDE": 41.881816, "LONGITUDE": -87.647215 }, "geometry": { "type": "Point", "coordinates": [ -87.647215, 41.881816 ] } },
{ "type": "Feature", "properties": { "STORE NAME": "DOMINICKS #2889", "SQUARE FEET": 48735, "BUFFER SIZE": "A", "ADDRESS": "5233 N LINCOLN AVE", "ZIP CODE": 60625, "CENSUS TRACT": 17031040202.000000, "LATITUDE": 41.976895, "LONGITUDE": -87.692280 }, "geometry": { "type": "Point", "coordinates": [ -87.69228, 41.976895 ] } },
{ "type": "Feature", "properties": { "STORE NAME": "DOMINICKS #2890", "SQUARE FEET": 55129, "BUFFER SIZE": "A", "ADDRESS": "5201 N SHERIDAN RD", "ZIP CODE": 60640, "CENSUS TRACT": 17031030706.000000, "LATITUDE": 41.976482, "LONGITUDE": -87.654840 }, "geometry": { "type": "Point", "coordinates": [ -87.65484, 41.976482 ] } },
{ "type": "Feature", "properties": { "STORE NAME": "DOMINICK'S # 304\/2304", "SQUARE FEET": 10001, "BUFFER SIZE": "A", "ADDRESS": "2550 N CLYBOURN AVE", "ZIP CODE": 60614, "CENSUS TRACT": 17031070700.000000, "LATITUDE": 41.927872, "LONGITUDE": -87.673259 }, "geometry": { "type": "Point", "coordinates": [ -87.673259, 41.927872 ] } },
{ "type": "Feature", "properties": { "STORE NAME": "DOMINICK'S # 86\/1086", "SQUARE FEET": 10001, "BUFFER SIZE": "A", "ADDRESS": "3350 N WESTERN AVE", "ZIP CODE": 60618, "CENSUS TRACT": 17031843700.000000, "LATITUDE": 41.942747, "LONGITUDE": -87.688354 }, "geometry": { "type": "Point", "coordinates": [ -87.688354, 41.942747 ] } },
{ "type": "Feature", "properties": { "STORE NAME": "DOMINICK'S Finer Foods, Inc. #1695", "SQUARE FEET": 26819, "BUFFER SIZE": "A", "ADDRESS": "959 W FULLERTON AVE", "ZIP CODE": 60614, "CENSUS TRACT": 17031071100.000000, "LATITUDE": 41.925268, "LONGITUDE": -87.653488 }, "geometry": { "type": "Point", "coordinates": [ -87.653488, 41.925268 ] } },
{ "type": "Feature", "properties": { "STORE NAME": "DOMINICK'S FINER FOODS - STORE # 2775", "SQUARE FEET": 54963, "BUFFER SIZE": "A", "ADDRESS": "2021 W CHICAGO AVE", "ZIP CODE": 60622, "CENSUS TRACT": 17031243000.000000, "LATITUDE": 41.895785, "LONGITUDE": -87.677931 }, "geometry": { "type": "Point", "coordinates": [ -87.677931, 41.895785 ] } },
{ "type": "Feature", "properties": { "STORE NAME": "EDDIE'S FOOD MART", "SQUARE FEET": 4500, "BUFFER SIZE": "B", "ADDRESS": "1858 W 63RD ST", "ZIP CODE": 60636, "CENSUS TRACT": 17031670600.000000, "LATITUDE": 41.779461, "LONGITUDE": -87.671437 }, "geometry": { "type": "Point", "coordinates": [ -87.671437, 41.779461 ] } },
{ "type": "Feature", "properties": { "STORE NAME": "EDDIE & SON FOOD &LIQ.", "SQUARE FEET": 2500, "BUFFER SIZE": "B", "ADDRESS": "3624 W NORTH AVE", "ZIP CODE": 60647, "CENSUS TRACT": 17031230400.000000, "LATITUDE": 41.910093, "LONGITUDE": -87.717575 }, "geometry": { "type": "Point", "coordinates": [ -87.717575, 41.910093 ] } },
{ "type": "Feature", "properties": { "STORE NAME": "EDDIE'S SUNSHINE FOOD & LIQUOR,  INC.", "SQUARE FEET": 3000, "BUFFER SIZE": "B", "ADDRESS": "10806 S MICHIGAN AVE", "ZIP CODE": 60628, "CENSUS TRACT": 17031490901.000000, "LATITUDE": 41.697818, "LONGITUDE": -87.621011 }, "geometry": { "type": "Point", "coordinates": [ -87.621011, 41.697818 ] } },
{ "type": "Feature", "properties": { "STORE NAME": "EDDY'S FOOD MART", "SQUARE FEET": 4000, "BUFFER SIZE": "B", "ADDRESS": "7575 N ROGERS AVE", "ZIP CODE": 60626, "CENSUS TRACT": 17031010300.000000, "LATITUDE": 42.019165, "LONGITUDE": -87.668397 }, "geometry": { "type": "Point", "coordinates": [ -87.668397, 42.019165 ] } },
{ "type": "Feature", "properties": { "STORE NAME": "EDGEWATER PRODUCE", "SQUARE FEET": 7400, "BUFFER SIZE": "B", "ADDRESS": "5509 N CLARK ST", "ZIP CODE": 60640, "CENSUS TRACT": 17031030800.000000, "LATITUDE": 41.981971, "LONGITUDE": -87.668321 }, "geometry": { "type": "Point", "coordinates": [ -87.668321, 41.981971 ] } },
{ "type": "Feature", "properties": { "STORE NAME": "EL BARRIO GROCERY", "SQUARE FEET": 10001, "BUFFER SIZE": "A", "ADDRESS": "3938 W NORTH AVE", "ZIP CODE": 60647, "CENSUS TRACT": 17031230400.000000, "LATITUDE": 41.910008, "LONGITUDE": -87.725438 }, "geometry": { "type": "Point", "coordinates": [ -87.725438, 41.910008 ] } },
{ "type": "Feature", "properties": { "STORE NAME": "EL MILAGRO", "SQUARE FEET": 5500, "BUFFER SIZE": "B", "ADDRESS": "3048 W 26TH ST", "ZIP CODE": 60623, "CENSUS TRACT": 17031300900.000000, "LATITUDE": 41.844687, "LONGITUDE": -87.702103 }, "geometry": { "type": "Point", "coordinates": [ -87.702103, 41.844687 ] } },
{ "type": "Feature", "properties": { "STORE NAME": "EL  PASEO  BORICUA", "SQUARE FEET": 3000, "BUFFER SIZE": "B", "ADDRESS": "2706 W DIVISION ST", "ZIP CODE": 60622, "CENSUS TRACT": 17031242600.000000, "LATITUDE": 41.903054, "LONGITUDE": -87.694770 }, "geometry": { "type": "Point", "coordinates": [ -87.69477, 41.903054 ] } },
{ "type": "Feature", "properties": { "STORE NAME": "EL YUNQUE FOOD & LIQUOR", "SQUARE FEET": 2500, "BUFFER SIZE": "B", "ADDRESS": "1900 N CALIFORNIA AVE", "ZIP CODE": 60647, "CENSUS TRACT": 17031222500.000000, "LATITUDE": 41.915761, "LONGITUDE": -87.697296 }, "geometry": { "type": "Point", "coordinates": [ -87.697296, 41.915761 ] } },
{ "type": "Feature", "properties": { "STORE NAME": "E.M. GROCERIES", "SQUARE FEET": 4500, "BUFFER SIZE": "B", "ADDRESS": "5358 S CARPENTER ST", "ZIP CODE": 60609, "CENSUS TRACT": 17031612000.000000, "LATITUDE": 41.796129, "LONGITUDE": -87.651435 }, "geometry": { "type": "Point", "coordinates": [ -87.651435, 41.796129 ] } },
{ "type": "Feature", "properties": { "STORE NAME": "EMILIO'S PRODUCE", "SQUARE FEET": 2500, "BUFFER SIZE": "B", "ADDRESS": "2294 N MILWAUKEE AVE", "ZIP CODE": 60647, "CENSUS TRACT": 17031221400.000000, "LATITUDE": 41.922597, "LONGITUDE": -87.697098 }, "geometry": { "type": "Point", "coordinates": [ -87.697098, 41.922597 ] } },
{ "type": "Feature", "properties": { "STORE NAME": "EUROPA GALLERIA INC", "SQUARE FEET": 6500, "BUFFER SIZE": "B", "ADDRESS": "340 W SUPERIOR ST", "ZIP CODE": 60610, "CENSUS TRACT": 17031081800.000000, "LATITUDE": 41.895663, "LONGITUDE": -87.637221 }, "geometry": { "type": "Point", "coordinates": [ -87.637221, 41.895663 ] } },
{ "type": "Feature", "properties": { "STORE NAME": "EXTRA VALUE FOOD & LIQUOR", "SQUARE FEET": 5000, "BUFFER SIZE": "B", "ADDRESS": "6257 S ASHLAND AVE", "ZIP CODE": 60636, "CENSUS TRACT": 17031670800.000000, "LATITUDE": 41.779615, "LONGITUDE": -87.664077 }, "geometry": { "type": "Point", "coordinates": [ -87.664077, 41.779615 ] } },
{ "type": "Feature", "properties": { "STORE NAME": "FAIRPLAY FINER FOOD", "SQUARE FEET": 10001, "BUFFER SIZE": "A", "ADDRESS": "2200 S WESTERN AVE", "ZIP CODE": 60608, "CENSUS TRACT": 17031841300.000000, "LATITUDE": 41.851984, "LONGITUDE": -87.685786 }, "geometry": { "type": "Point", "coordinates": [ -87.685786, 41.851984 ] } },
{ "type": "Feature", "properties": { "STORE NAME": "FAIRPLAY FINER FOODS INC", "SQUARE FEET": 10001, "BUFFER SIZE": "A", "ADDRESS": "4640 S HALSTED ST", "ZIP CODE": 60609, "CENSUS TRACT": 17031842600.000000, "LATITUDE": 41.809630, "LONGITUDE": -87.645708 }, "geometry": { "type": "Point", "coordinates": [ -87.645708, 41.80963 ] } },
{ "type": "Feature", "properties": { "STORE NAME": "FAIRPLAY FOODS INC", "SQUARE FEET": 18500, "BUFFER SIZE": "A", "ADDRESS": "2323 W 111TH ST", "ZIP CODE": 60643, "CENSUS TRACT": 17031750500.000000, "LATITUDE": 41.691679, "LONGITUDE": -87.679779 }, "geometry": { "type": "Point", "coordinates": [ -87.679779, 41.691679 ] } },
{ "type": "Feature", "properties": { "STORE NAME": "FAIRWAY FOOD", "SQUARE FEET": 3000, "BUFFER SIZE": "B", "ADDRESS": "2900 E 79TH ST", "ZIP CODE": 60649, "CENSUS TRACT": 17031431301.000000, "LATITUDE": 41.752005, "LONGITUDE": -87.554015 }, "geometry": { "type": "Point", "coordinates": [ -87.554015, 41.752005 ] } },
{ "type": "Feature", "properties": { "STORE NAME": "FAMILY PRIDE", "SQUARE FEET": 12500, "BUFFER SIZE": "A", "ADDRESS": "10601 S PULASKI RD", "ZIP CODE": 60655, "CENSUS TRACT": 17031740200.000000, "LATITUDE": 41.700355, "LONGITUDE": -87.720541 }, "geometry": { "type": "Point", "coordinates": [ -87.720541, 41.700355 ] } },
{ "type": "Feature", "properties": { "STORE NAME": "FARM SUPER MARKET", "SQUARE FEET": 3000, "BUFFER SIZE": "B", "ADDRESS": "2255 W DEVON AVE", "ZIP CODE": 60659, "CENSUS TRACT": 17031020901.000000, "LATITUDE": 41.997667, "LONGITUDE": -87.687213 }, "geometry": { "type": "Point", "coordinates": [ -87.687213, 41.997667 ] } },
{ "type": "Feature", "properties": { "STORE NAME": "FIESTA SUPERMARCADO", "SQUARE FEET": 14500, "BUFFER SIZE": "A", "ADDRESS": "3307 W 63RD ST", "ZIP CODE": 60629, "CENSUS TRACT": 17031660500.000000, "LATITUDE": 41.778819, "LONGITUDE": -87.705904 }, "geometry": { "type": "Point", "coordinates": [ -87.705904, 41.778819 ] } },
{ "type": "Feature", "properties": { "STORE NAME": "FIRST CHOICE MARKET", "SQUARE FEET": 10000, "BUFFER SIZE": "A", "ADDRESS": "3019 E 91ST ST", "ZIP CODE": 60617, "CENSUS TRACT": 17031461000.000000, "LATITUDE": 41.729978, "LONGITUDE": -87.550383 }, "geometry": { "type": "Point", "coordinates": [ -87.550383, 41.729978 ] } },
{ "type": "Feature", "properties": { "STORE NAME": "FIVE STAR CERTIFIED INC", "SQUARE FEET": 5000, "BUFFER SIZE": "B", "ADDRESS": "935 W 87TH ST", "ZIP CODE": 60620, "CENSUS TRACT": 17031711400.000000, "LATITUDE": 41.735908, "LONGITUDE": -87.647423 }, "geometry": { "type": "Point", "coordinates": [ -87.647423, 41.735908 ] } },
{ "type": "Feature", "properties": { "STORE NAME": "FOOD 4 LESS", "SQUARE FEET": 63506, "BUFFER SIZE": "A", "ADDRESS": "112 W 87TH ST", "ZIP CODE": 60620, "CENSUS TRACT": 17031842400.000000, "LATITUDE": 41.736380, "LONGITUDE": -87.627509 }, "geometry": { "type": "Point", "coordinates": [ -87.627509, 41.73638 ] } },
{ "type": "Feature", "properties": { "STORE NAME": "FOOD 4 LESS", "SQUARE FEET": 58000, "BUFFER SIZE": "A", "ADDRESS": "4821 W NORTH AVE", "ZIP CODE": 60639, "CENSUS TRACT": 17031250800.000000, "LATITUDE": 41.909505, "LONGITUDE": -87.746960 }, "geometry": { "type": "Point", "coordinates": [ -87.74696, 41.909505 ] } },
{ "type": "Feature", "properties": { "STORE NAME": "Food 4 Less Midwest", "SQUARE FEET": 62000, "BUFFER SIZE": "A", "ADDRESS": "7030 S ASHLAND AVE", "ZIP CODE": 60636, "CENSUS TRACT": 17031671500.000000, "LATITUDE": 41.765791, "LONGITUDE": -87.663967 }, "geometry": { "type": "Point", "coordinates": [ -87.663967, 41.765791 ] } },
{ "type": "Feature", "properties": { "STORE NAME": "FOOD 4 LESS MIDWEST #789", "SQUARE FEET": 64486, "BUFFER SIZE": "A", "ADDRESS": "4620 S DAMEN AVE", "ZIP CODE": 60609, "CENSUS TRACT": 17031610300.000000, "LATITUDE": 41.809669, "LONGITUDE": -87.675116 }, "geometry": { "type": "Point", "coordinates": [ -87.675116, 41.809669 ] } },
{ "type": "Feature", "properties": { "STORE NAME": "FOOD BASKET", "SQUARE FEET": 2500, "BUFFER SIZE": "B", "ADDRESS": "7205 S HALSTED ST", "ZIP CODE": 60621, "CENSUS TRACT": 17031681300.000000, "LATITUDE": 41.763181, "LONGITUDE": -87.644215 }, "geometry": { "type": "Point", "coordinates": [ -87.644215, 41.763181 ] } },
{ "type": "Feature", "properties": { "STORE NAME": "FOODSMART", "SQUARE FEET": 13800, "BUFFER SIZE": "A", "ADDRESS": "2901 W ARMITAGE AVE", "ZIP CODE": 60647, "CENSUS TRACT": 17031222500.000000, "LATITUDE": 41.917359, "LONGITUDE": -87.699341 }, "geometry": { "type": "Point", "coordinates": [ -87.699341, 41.917359 ] } },
{ "type": "Feature", "properties": { "STORE NAME": "FOODSMART", "SQUARE FEET": 3500, "BUFFER SIZE": "B", "ADDRESS": "3415 W DIVERSEY AVE", "ZIP CODE": 60647, "CENSUS TRACT": 17031220602.000000, "LATITUDE": 41.931853, "LONGITUDE": -87.712901 }, "geometry": { "type": "Point", "coordinates": [ -87.712901, 41.931853 ] } },
{ "type": "Feature", "properties": { "STORE NAME": "FRESH BUY FOODS INC", "SQUARE FEET": 26000, "BUFFER SIZE": "A", "ADDRESS": "6319 S VERNON AVE", "ZIP CODE": 60637, "CENSUS TRACT": 17031420700.000000, "LATITUDE": 41.779665, "LONGITUDE": -87.614251 }, "geometry": { "type": "Point", "coordinates": [ -87.614251, 41.779665 ] } },
{ "type": "Feature", "properties": { "STORE NAME": "FRESH FARMS INTERNATIONAL", "SQUARE FEET": 9500, "BUFFER SIZE": "B", "ADDRESS": "2626 W DEVON AVE", "ZIP CODE": 60659, "CENSUS TRACT": 17031020602.000000, "LATITUDE": 41.997736, "LONGITUDE": -87.695929 }, "geometry": { "type": "Point", "coordinates": [ -87.695929, 41.997736 ] } },
{ "type": "Feature", "properties": { "STORE NAME": "FRESH MARKET PLACE", "SQUARE FEET": 20000, "BUFFER SIZE": "A", "ADDRESS": "2600 N CENTRAL AVE", "ZIP CODE": 60639, "CENSUS TRACT": 17031190602.000000, "LATITUDE": 41.927648, "LONGITUDE": -87.766267 }, "geometry": { "type": "Point", "coordinates": [ -87.766267, 41.927648 ] } },
{ "type": "Feature", "properties": { "STORE NAME": "FRUTERIA EL MERCADO", "SQUARE FEET": 5500, "BUFFER SIZE": "B", "ADDRESS": "2759 S SPAULDING AVE", "ZIP CODE": 60623, "CENSUS TRACT": 17031840800.000000, "LATITUDE": 41.840933, "LONGITUDE": -87.707224 }, "geometry": { "type": "Point", "coordinates": [ -87.707224, 41.840933 ] } },
{ "type": "Feature", "properties": { "STORE NAME": "FURTERIA EL SERRANITO", "SQUARE FEET": 2500, "BUFFER SIZE": "B", "ADDRESS": "1755 W 38TH ST", "ZIP CODE": 60609, "CENSUS TRACT": 17031590700.000000, "LATITUDE": 41.824861, "LONGITUDE": -87.670023 }, "geometry": { "type": "Point", "coordinates": [ -87.670023, 41.824861 ] } },
{ "type": "Feature", "properties": { "STORE NAME": "GAYTAN GROCERY STORE", "SQUARE FEET": 3500, "BUFFER SIZE": "B", "ADDRESS": "2802 S KOLIN AVE", "ZIP CODE": 60623, "CENSUS TRACT": 17031301801.000000, "LATITUDE": 41.840309, "LONGITUDE": -87.733107 }, "geometry": { "type": "Point", "coordinates": [ -87.733107, 41.840309 ] } },
{ "type": "Feature", "properties": { "STORE NAME": "GEMELOS FOOD\/ CHECK CASHING SERVICES", "SQUARE FEET": 6600, "BUFFER SIZE": "B", "ADDRESS": "4300 S MOZART ST", "ZIP CODE": 60632, "CENSUS TRACT": 17031580502.000000, "LATITUDE": 41.815432, "LONGITUDE": -87.695798 }, "geometry": { "type": "Point", "coordinates": [ -87.695798, 41.815432 ] } },
{ "type": "Feature", "properties": { "STORE NAME": "GENES SAUSAGE SHOP AT DELI MEYER", "SQUARE FEET": 6000, "BUFFER SIZE": "B", "ADDRESS": "4746 N LINCOLN AVE", "ZIP CODE": 60625, "CENSUS TRACT": 17031040600.000000, "LATITUDE": 41.967754, "LONGITUDE": -87.688172 }, "geometry": { "type": "Point", "coordinates": [ -87.688172, 41.967754 ] } },
{ "type": "Feature", "properties": { "STORE NAME": "GENE'S SAUSAGE SHOP & DELI INC", "SQUARE FEET": 5000, "BUFFER SIZE": "B", "ADDRESS": "5330 W BELMONT AVE", "ZIP CODE": 60641, "CENSUS TRACT": 17031151100.000000, "LATITUDE": 41.938762, "LONGITUDE": -87.760407 }, "geometry": { "type": "Point", "coordinates": [ -87.760407, 41.938762 ] } },
{ "type": "Feature", "properties": { "STORE NAME": "GILMART'S  FOOD & LIQUOR", "SQUARE FEET": 10001, "BUFFER SIZE": "A", "ADDRESS": "5044 S ARCHER AVE", "ZIP CODE": 60632, "CENSUS TRACT": 17031570300.000000, "LATITUDE": 41.801400, "LONGITUDE": -87.726044 }, "geometry": { "type": "Point", "coordinates": [ -87.726044, 41.8014 ] } },
{ "type": "Feature", "properties": { "STORE NAME": "GOLDMORE FOOD", "SQUARE FEET": 2500, "BUFFER SIZE": "B", "ADDRESS": "1949 W 51ST ST", "ZIP CODE": 60609, "CENSUS TRACT": 17031611700.000000, "LATITUDE": 41.801128, "LONGITUDE": -87.674080 }, "geometry": { "type": "Point", "coordinates": [ -87.67408, 41.801128 ] } },
{ "type": "Feature", "properties": { "STORE NAME": "GRAND FOOD MARKET", "SQUARE FEET": 3952, "BUFFER SIZE": "B", "ADDRESS": "5202 W GRAND AVE", "ZIP CODE": 60639, "CENSUS TRACT": 17031191200.000000, "LATITUDE": 41.917068, "LONGITUDE": -87.756041 }, "geometry": { "type": "Point", "coordinates": [ -87.756041, 41.917068 ] } },
{ "type": "Feature", "properties": { "STORE NAME": "GRAND PALACE SUPERMARKET, INC", "SQUARE FEET": 3000, "BUFFER SIZE": "B", "ADDRESS": "7131 S STATE ST", "ZIP CODE": 60619, "CENSUS TRACT": 17031691000.000000, "LATITUDE": 41.764574, "LONGITUDE": -87.624740 }, "geometry": { "type": "Point", "coordinates": [ -87.62474, 41.764574 ] } },
{ "type": "Feature", "properties": { "STORE NAME": "H & A FOOD MARKET, INC.", "SQUARE FEET": 2500, "BUFFER SIZE": "B", "ADDRESS": "1007 W 63RD ST", "ZIP CODE": 60621, "CENSUS TRACT": 17031681000.000000, "LATITUDE": 41.779565, "LONGITUDE": -87.649975 }, "geometry": { "type": "Point", "coordinates": [ -87.649975, 41.779565 ] } },
{ "type": "Feature", "properties": { "STORE NAME": "HALAL MEAT & GROCERY", "SQUARE FEET": 2500, "BUFFER SIZE": "B", "ADDRESS": "1414 W DEVON AVE", "ZIP CODE": 60660, "CENSUS TRACT": 17031010600.000000, "LATITUDE": 41.998237, "LONGITUDE": -87.666171 }, "geometry": { "type": "Point", "coordinates": [ -87.666171, 41.998237 ] } },
{ "type": "Feature", "properties": { "STORE NAME": "HAPPY FOODS", "SQUARE FEET": 11500, "BUFFER SIZE": "A", "ADDRESS": "6415 N CENTRAL AVE", "ZIP CODE": 60646, "CENSUS TRACT": 17031120200.000000, "LATITUDE": 41.997860, "LONGITUDE": -87.763446 }, "geometry": { "type": "Point", "coordinates": [ -87.763446, 41.99786 ] } },
{ "type": "Feature", "properties": { "STORE NAME": "HAPPY FOODS", "SQUARE FEET": 11000, "BUFFER SIZE": "A", "ADDRESS": "6783 N NORTHWEST HWY", "ZIP CODE": 60631, "CENSUS TRACT": 17031090200.000000, "LATITUDE": 42.004399, "LONGITUDE": -87.818486 }, "geometry": { "type": "Point", "coordinates": [ -87.818486, 42.004399 ] } },
{ "type": "Feature", "properties": { "STORE NAME": "HARBOR MARKET", "SQUARE FEET": 4200, "BUFFER SIZE": "B", "ADDRESS": "155 N HARBOR DR", "ZIP CODE": 60601, "CENSUS TRACT": 17031320100.000000, "LATITUDE": 41.884751, "LONGITUDE": -87.615604 }, "geometry": { "type": "Point", "coordinates": [ -87.615604, 41.884751 ] } },
{ "type": "Feature", "properties": { "STORE NAME": "HAREER FOOD & LIQUOR", "SQUARE FEET": 2500, "BUFFER SIZE": "B", "ADDRESS": "5452 S HALSTED ST", "ZIP CODE": 60609, "CENSUS TRACT": 17031612100.000000, "LATITUDE": 41.794559, "LONGITUDE": -87.645313 }, "geometry": { "type": "Point", "coordinates": [ -87.645313, 41.794559 ] } },
{ "type": "Feature", "properties": { "STORE NAME": "HARPER FOODS", "SQUARE FEET": 3300, "BUFFER SIZE": "B", "ADDRESS": "1455 E 57TH ST", "ZIP CODE": 60637, "CENSUS TRACT": 17031411100.000000, "LATITUDE": 41.791411, "LONGITUDE": -87.589533 }, "geometry": { "type": "Point", "coordinates": [ -87.589533, 41.791411 ] } },
{ "type": "Feature", "properties": { "STORE NAME": "HARVESTIME FOODS", "SQUARE FEET": 8750, "BUFFER SIZE": "B", "ADDRESS": "2632 W LAWRENCE AVE", "ZIP CODE": 60625, "CENSUS TRACT": 17031040201.000000, "LATITUDE": 41.968670, "LONGITUDE": -87.695163 }, "geometry": { "type": "Point", "coordinates": [ -87.695163, 41.96867 ] } },
{ "type": "Feature", "properties": { "STORE NAME": "Hegewisch Fruit Market Inc.", "SQUARE FEET": 7800, "BUFFER SIZE": "B", "ADDRESS": "13209 S BALTIMORE AVE", "ZIP CODE": 60633, "CENSUS TRACT": 17031550100.000000, "LATITUDE": 41.655189, "LONGITUDE": -87.546999 }, "geometry": { "type": "Point", "coordinates": [ -87.546999, 41.655189 ] } },
{ "type": "Feature", "properties": { "STORE NAME": "HILLTOP LIQUORS MART", "SQUARE FEET": 3200, "BUFFER SIZE": "B", "ADDRESS": "10259 S MICHIGAN AVE", "ZIP CODE": 60628, "CENSUS TRACT": 17031490800.000000, "LATITUDE": 41.707248, "LONGITUDE": -87.620056 }, "geometry": { "type": "Point", "coordinates": [ -87.620056, 41.707248 ] } },
{ "type": "Feature", "properties": { "STORE NAME": "HOA NOM CO", "SQUARE FEET": 4200, "BUFFER SIZE": "B", "ADDRESS": "1101 W ARGYLE ST", "ZIP CODE": 60640, "CENSUS TRACT": 17031031200.000000, "LATITUDE": 41.973161, "LONGITUDE": -87.657833 }, "geometry": { "type": "Point", "coordinates": [ -87.657833, 41.973161 ] } },
{ "type": "Feature", "properties": { "STORE NAME": "HOLLYWOOD TOWER MKT", "SQUARE FEET": 3000, "BUFFER SIZE": "B", "ADDRESS": "5701 N SHERIDAN RD", "ZIP CODE": 60660, "CENSUS TRACT": 17031030604.000000, "LATITUDE": 41.985638, "LONGITUDE": -87.655094 }, "geometry": { "type": "Point", "coordinates": [ -87.655094, 41.985638 ] } },
{ "type": "Feature", "properties": { "STORE NAME": "HONG KONG MARKET", "SQUARE FEET": 46300, "BUFFER SIZE": "A", "ADDRESS": "520 W 24TH PL", "ZIP CODE": 60616, "CENSUS TRACT": 17031841100.000000, "LATITUDE": 41.848237, "LONGITUDE": -87.640956 }, "geometry": { "type": "Point", "coordinates": [ -87.640956, 41.848237 ] } },
{ "type": "Feature", "properties": { "STORE NAME": "HYDE PARK PRODUCE, LTD", "SQUARE FEET": 10000, "BUFFER SIZE": "A", "ADDRESS": "1226 E 53RD ST", "ZIP CODE": 60615, "CENSUS TRACT": 17031410700.000000, "LATITUDE": 41.799577, "LONGITUDE": -87.595513 }, "geometry": { "type": "Point", "coordinates": [ -87.595513, 41.799577 ] } },
{ "type": "Feature", "properties": { "STORE NAME": "H & Z GROCERY STORE", "SQUARE FEET": 10001, "BUFFER SIZE": "A", "ADDRESS": "3638 W WRIGHTWOOD AVE", "ZIP CODE": 60647, "CENSUS TRACT": 17031220702.000000, "LATITUDE": 41.928345, "LONGITUDE": -87.718671 }, "geometry": { "type": "Point", "coordinates": [ -87.718671, 41.928345 ] } },
{ "type": "Feature", "properties": { "STORE NAME": "IMPERIAL TOWER MARKET", "SQUARE FEET": 6031, "BUFFER SIZE": "B", "ADDRESS": "4250 N MARINE DR", "ZIP CODE": 60613, "CENSUS TRACT": 17031031400.000000, "LATITUDE": 41.960020, "LONGITUDE": -87.646906 }, "geometry": { "type": "Point", "coordinates": [ -87.646906, 41.96002 ] } },
{ "type": "Feature", "properties": { "STORE NAME": "INTERNATIONAL FOODS NW INC", "SQUARE FEET": 14000, "BUFFER SIZE": "A", "ADDRESS": "4404 W FULLERTON AVE", "ZIP CODE": 60639, "CENSUS TRACT": 17031200200.000000, "LATITUDE": 41.924473, "LONGITUDE": -87.736790 }, "geometry": { "type": "Point", "coordinates": [ -87.73679, 41.924473 ] } },
{ "type": "Feature", "properties": { "STORE NAME": "INTERNATIONAL SUPERMARKET INC", "SQUARE FEET": 7500, "BUFFER SIZE": "B", "ADDRESS": "4556 S ASHLAND AVE", "ZIP CODE": 60609, "CENSUS TRACT": 17031610400.000000, "LATITUDE": 41.810566, "LONGITUDE": -87.665171 }, "geometry": { "type": "Point", "coordinates": [ -87.665171, 41.810566 ] } },
{ "type": "Feature", "properties": { "STORE NAME": "JAMAICA FOOD & LIQUOR INC", "SQUARE FEET": 2500, "BUFFER SIZE": "B", "ADDRESS": "4252 S COTTAGE GROVE AVE", "ZIP CODE": 60653, "CENSUS TRACT": 17031380100.000000, "LATITUDE": 41.817030, "LONGITUDE": -87.606858 }, "geometry": { "type": "Point", "coordinates": [ -87.606858, 41.81703 ] } },
{ "type": "Feature", "properties": { "STORE NAME": "J AND P FINER FOODS", "SQUARE FEET": 4500, "BUFFER SIZE": "B", "ADDRESS": "3501 W MONTROSE AVE", "ZIP CODE": 60618, "CENSUS TRACT": 17031160501.000000, "LATITUDE": 41.960989, "LONGITUDE": -87.715646 }, "geometry": { "type": "Point", "coordinates": [ -87.715646, 41.960989 ] } },
{ "type": "Feature", "properties": { "STORE NAME": "J & A ORIENTAL FOOD MART", "SQUARE FEET": 10001, "BUFFER SIZE": "A", "ADDRESS": "5755 W FULLERTON AVE", "ZIP CODE": 60639, "CENSUS TRACT": 17031191302.000000, "LATITUDE": 41.923799, "LONGITUDE": -87.770633 }, "geometry": { "type": "Point", "coordinates": [ -87.770633, 41.923799 ] } },
{ "type": "Feature", "properties": { "STORE NAME": "JARDAN FOOD & LIQUOR", "SQUARE FEET": 9500, "BUFFER SIZE": "B", "ADDRESS": "317 E GARFIELD BLVD", "ZIP CODE": 60637, "CENSUS TRACT": 17031400400.000000, "LATITUDE": 41.794325, "LONGITUDE": -87.618521 }, "geometry": { "type": "Point", "coordinates": [ -87.618521, 41.794325 ] } },
{ "type": "Feature", "properties": { "STORE NAME": "JERUSALEM LIQUORS", "SQUARE FEET": 4500, "BUFFER SIZE": "B", "ADDRESS": "3133 W LAWRENCE AVE", "ZIP CODE": 60625, "CENSUS TRACT": 17031140800.000000, "LATITUDE": 41.968355, "LONGITUDE": -87.707394 }, "geometry": { "type": "Point", "coordinates": [ -87.707394, 41.968355 ] } },
{ "type": "Feature", "properties": { "STORE NAME": "JEWEL FOOD STORE", "SQUARE FEET": 62603, "BUFFER SIZE": "A", "ADDRESS": "11730 S MARSHFIELD AVE", "ZIP CODE": 60643, "CENSUS TRACT": 17031750500.000000, "LATITUDE": 41.680332, "LONGITUDE": -87.662585 }, "geometry": { "type": "Point", "coordinates": [ -87.662585, 41.680332 ] } },
{ "type": "Feature", "properties": { "STORE NAME": "JEWEL FOOD STORE #3030", "SQUARE FEET": 31951, "BUFFER SIZE": "A", "ADDRESS": "7530 S STONY ISLAND AVE", "ZIP CODE": 60649, "CENSUS TRACT": 17031834200.000000, "LATITUDE": 41.757806, "LONGITUDE": -87.586268 }, "geometry": { "type": "Point", "coordinates": [ -87.586268, 41.757806 ] } },
{ "type": "Feature", "properties": { "STORE NAME": "JEWEL FOOD STORE #3043", "SQUARE FEET": 37641, "BUFFER SIZE": "A", "ADDRESS": "443 E 34TH ST", "ZIP CODE": 60616, "CENSUS TRACT": 17031351000.000000, "LATITUDE": 41.833045, "LONGITUDE": -87.614611 }, "geometry": { "type": "Point", "coordinates": [ -87.614611, 41.833045 ] } },
{ "type": "Feature", "properties": { "STORE NAME": "JEWEL FOOD STORE #3057", "SQUARE FEET": 21785, "BUFFER SIZE": "A", "ADDRESS": "6057 S WESTERN AVE", "ZIP CODE": 60636, "CENSUS TRACT": 17031835000.000000, "LATITUDE": 41.783061, "LONGITUDE": -87.683599 }, "geometry": { "type": "Point", "coordinates": [ -87.683599, 41.783061 ] } },
{ "type": "Feature", "properties": { "STORE NAME": "JEWEL FOOD STORE #3092", "SQUARE FEET": 10001, "BUFFER SIZE": "A", "ADDRESS": "1655 E 95TH ST", "ZIP CODE": 60617, "CENSUS TRACT": 17031510300.000000, "LATITUDE": 41.722263, "LONGITUDE": -87.582918 }, "geometry": { "type": "Point", "coordinates": [ -87.582918, 41.722263 ] } },
{ "type": "Feature", "properties": { "STORE NAME": "JEWEL FOOD STORE #3114", "SQUARE FEET": 20860, "BUFFER SIZE": "A", "ADDRESS": "3128 W 103RD ST", "ZIP CODE": 60655, "CENSUS TRACT": 17031740100.000000, "LATITUDE": 41.706313, "LONGITUDE": -87.699767 }, "geometry": { "type": "Point", "coordinates": [ -87.699767, 41.706313 ] } },
{ "type": "Feature", "properties": { "STORE NAME": "JEWEL FOOD STORE #3139", "SQUARE FEET": 22295, "BUFFER SIZE": "A", "ADDRESS": "3940 E 106TH ST", "ZIP CODE": 60617, "CENSUS TRACT": 17031520400.000000, "LATITUDE": 41.702806, "LONGITUDE": -87.527704 }, "geometry": { "type": "Point", "coordinates": [ -87.527704, 41.702806 ] } },
{ "type": "Feature", "properties": { "STORE NAME": "JEWEL FOOD STORE #3170", "SQUARE FEET": 30374, "BUFFER SIZE": "A", "ADDRESS": "5320 S PULASKI RD", "ZIP CODE": 60632, "CENSUS TRACT": 17031620200.000000, "LATITUDE": 41.796198, "LONGITUDE": -87.723392 }, "geometry": { "type": "Point", "coordinates": [ -87.723392, 41.796198 ] } },
{ "type": "Feature", "properties": { "STORE NAME": "JEWEL FOOD STORE #3176", "SQUARE FEET": 32294, "BUFFER SIZE": "A", "ADDRESS": "9400 S ASHLAND AVE", "ZIP CODE": 60620, "CENSUS TRACT": 17031730300.000000, "LATITUDE": 41.722941, "LONGITUDE": -87.662863 }, "geometry": { "type": "Point", "coordinates": [ -87.662863, 41.722941 ] } },
{ "type": "Feature", "properties": { "STORE NAME": "JEWEL FOOD STORE #3181", "SQUARE FEET": 30745, "BUFFER SIZE": "A", "ADDRESS": "87 W 87TH ST", "ZIP CODE": 60620, "CENSUS TRACT": 17031842400.000000, "LATITUDE": 41.736145, "LONGITUDE": -87.626918 }, "geometry": { "type": "Point", "coordinates": [ -87.626918, 41.736145 ] } },
{ "type": "Feature", "properties": { "STORE NAME": "JEWEL FOOD STORE #3210", "SQUARE FEET": 23845, "BUFFER SIZE": "A", "ADDRESS": "1210 N CLARK ST", "ZIP CODE": 60610, "CENSUS TRACT": 17031080202.000000, "LATITUDE": 41.904265, "LONGITUDE": -87.631603 }, "geometry": { "type": "Point", "coordinates": [ -87.631603, 41.904265 ] } },
{ "type": "Feature", "properties": { "STORE NAME": "JEWEL FOOD STORE #3224", "SQUARE FEET": 29299, "BUFFER SIZE": "A", "ADDRESS": "6430 W IRVING PARK RD", "ZIP CODE": 60634, "CENSUS TRACT": 17031170100.000000, "LATITUDE": 41.953010, "LONGITUDE": -87.787707 }, "geometry": { "type": "Point", "coordinates": [ -87.787707, 41.95301 ] } },
{ "type": "Feature", "properties": { "STORE NAME": "JEWEL FOOD STORE #3241", "SQUARE FEET": 24262, "BUFFER SIZE": "A", "ADDRESS": "1341 N PAULINA ST", "ZIP CODE": 60622, "CENSUS TRACT": 17031241500.000000, "LATITUDE": 41.906244, "LONGITUDE": -87.669862 }, "geometry": { "type": "Point", "coordinates": [ -87.669862, 41.906244 ] } },
{ "type": "Feature", "properties": { "STORE NAME": "JEWEL FOOD STORE #3282", "SQUARE FEET": 24922, "BUFFER SIZE": "A", "ADDRESS": "4729 N CENTRAL AVE", "ZIP CODE": 60630, "CENSUS TRACT": 17031150300.000000, "LATITUDE": 41.966797, "LONGITUDE": -87.767299 }, "geometry": { "type": "Point", "coordinates": [ -87.767299, 41.966797 ] } },
{ "type": "Feature", "properties": { "STORE NAME": "JEWEL FOOD STORE #3296", "SQUARE FEET": 29421, "BUFFER SIZE": "A", "ADDRESS": "7342 W FOSTER AVE", "ZIP CODE": 60656, "CENSUS TRACT": 17031100500.000000, "LATITUDE": 41.974543, "LONGITUDE": -87.811347 }, "geometry": { "type": "Point", "coordinates": [ -87.811347, 41.974543 ] } },
{ "type": "Feature", "properties": { "STORE NAME": "JEWEL FOOD STORE #3302", "SQUARE FEET": 25431, "BUFFER SIZE": "A", "ADDRESS": "3644 S ARCHER AVE", "ZIP CODE": 60609, "CENSUS TRACT": 17031590500.000000, "LATITUDE": 41.827584, "LONGITUDE": -87.682454 }, "geometry": { "type": "Point", "coordinates": [ -87.682454, 41.827584 ] } },
{ "type": "Feature", "properties": { "STORE NAME": "JEWEL FOOD STORE #3344", "SQUARE FEET": 63407, "BUFFER SIZE": "A", "ADDRESS": "1220 S ASHLAND AVE", "ZIP CODE": 60608, "CENSUS TRACT": 17031842900.000000, "LATITUDE": 41.866254, "LONGITUDE": -87.666524 }, "geometry": { "type": "Point", "coordinates": [ -87.666524, 41.866254 ] } },
{ "type": "Feature", "properties": { "STORE NAME": "JEWEL FOOD  STORE # 3345", "SQUARE FEET": 60271, "BUFFER SIZE": "A", "ADDRESS": "1224 S WABASH AVE", "ZIP CODE": 60605, "CENSUS TRACT": 17031330100.000000, "LATITUDE": 41.866724, "LONGITUDE": -87.625961 }, "geometry": { "type": "Point", "coordinates": [ -87.625961, 41.866724 ] } },
{ "type": "Feature", "properties": { "STORE NAME": "JEWEL FOOD STORE #3349", "SQUARE FEET": 64285, "BUFFER SIZE": "A", "ADDRESS": "2520 N NARRAGANSETT AVE", "ZIP CODE": 60639, "CENSUS TRACT": 17031831500.000000, "LATITUDE": 41.926297, "LONGITUDE": -87.785695 }, "geometry": { "type": "Point", "coordinates": [ -87.785695, 41.926297 ] } },
{ "type": "Feature", "properties": { "STORE NAME": "JEWEL FOOD STORE #3368", "SQUARE FEET": 31600, "BUFFER SIZE": "A", "ADDRESS": "550 N STATE ST", "ZIP CODE": 60610, "CENSUS TRACT": 17031081600.000000, "LATITUDE": 41.892421, "LONGITUDE": -87.628235 }, "geometry": { "type": "Point", "coordinates": [ -87.628235, 41.892421 ] } },
{ "type": "Feature", "properties": { "STORE NAME": "JEWEL FOOD STORE #3407", "SQUARE FEET": 19238, "BUFFER SIZE": "A", "ADDRESS": "5516 N CLARK ST", "ZIP CODE": 60640, "CENSUS TRACT": 17031030900.000000, "LATITUDE": 41.982190, "LONGITUDE": -87.668652 }, "geometry": { "type": "Point", "coordinates": [ -87.668652, 41.98219 ] } },
{ "type": "Feature", "properties": { "STORE NAME": "JEWEL FOOD STORE #3441", "SQUARE FEET": 22443, "BUFFER SIZE": "A", "ADDRESS": "2940 N ASHLAND AVE", "ZIP CODE": 60657, "CENSUS TRACT": 17031062600.000000, "LATITUDE": 41.935472, "LONGITUDE": -87.668655 }, "geometry": { "type": "Point", "coordinates": [ -87.668655, 41.935472 ] } },
{ "type": "Feature", "properties": { "STORE NAME": "JEWEL FOOD STORE #3442", "SQUARE FEET": 29060, "BUFFER SIZE": "A", "ADDRESS": "4042 W FOSTER AVE", "ZIP CODE": 60630, "CENSUS TRACT": 17031130200.000000, "LATITUDE": 41.975624, "LONGITUDE": -87.729845 }, "geometry": { "type": "Point", "coordinates": [ -87.729845, 41.975624 ] } },
{ "type": "Feature", "properties": { "STORE NAME": "JEWEL FOOD STORE #3443", "SQUARE FEET": 25356, "BUFFER SIZE": "A", "ADDRESS": "5343 N BROADWAY", "ZIP CODE": 60640, "CENSUS TRACT": 17031030703.000000, "LATITUDE": 41.979428, "LONGITUDE": -87.659806 }, "geometry": { "type": "Point", "coordinates": [ -87.659806, 41.979428 ] } },
{ "type": "Feature", "properties": { "STORE NAME": "JEWEL FOOD STORE #3454", "SQUARE FEET": 25490, "BUFFER SIZE": "A", "ADDRESS": "4250 N LINCOLN AVE", "ZIP CODE": 60618, "CENSUS TRACT": 17031050200.000000, "LATITUDE": 41.959100, "LONGITUDE": -87.682392 }, "geometry": { "type": "Point", "coordinates": [ -87.682392, 41.9591 ] } },
{ "type": "Feature", "properties": { "STORE NAME": "JEWEL FOOD STORE #3455", "SQUARE FEET": 23660, "BUFFER SIZE": "A", "ADDRESS": "4355 N SHERIDAN RD", "ZIP CODE": 60613, "CENSUS TRACT": 17031032100.000000, "LATITUDE": 41.961398, "LONGITUDE": -87.654593 }, "geometry": { "type": "Point", "coordinates": [ -87.654593, 41.961398 ] } },
{ "type": "Feature", "properties": { "STORE NAME": "JEWEL FOOD STORE #3470", "SQUARE FEET": 24815, "BUFFER SIZE": "A", "ADDRESS": "3570 N ELSTON AVE", "ZIP CODE": 60618, "CENSUS TRACT": 17031831100.000000, "LATITUDE": 41.946058, "LONGITUDE": -87.708230 }, "geometry": { "type": "Point", "coordinates": [ -87.70823, 41.946058 ] } },
{ "type": "Feature", "properties": { "STORE NAME": "JEWEL FOOD STORE #3477", "SQUARE FEET": 17676, "BUFFER SIZE": "A", "ADDRESS": "4734 N CUMBERLAND AVE", "ZIP CODE": 60656, "CENSUS TRACT": 17031760802.000000, "LATITUDE": 41.966011, "LONGITUDE": -87.836831 }, "geometry": { "type": "Point", "coordinates": [ -87.836831, 41.966011 ] } },
{ "type": "Feature", "properties": { "STORE NAME": "JEWEL FOOD STORE #3501", "SQUARE FEET": 56010, "BUFFER SIZE": "A", "ADDRESS": "3400 N WESTERN AVE", "ZIP CODE": 60618, "CENSUS TRACT": 17031843700.000000, "LATITUDE": 41.943187, "LONGITUDE": -87.688302 }, "geometry": { "type": "Point", "coordinates": [ -87.688302, 41.943187 ] } },
{ "type": "Feature", "properties": { "STORE NAME": "JEWEL FOOD STORE #3514", "SQUARE FEET": 20285, "BUFFER SIZE": "A", "ADDRESS": "3531 N BROADWAY", "ZIP CODE": 60657, "CENSUS TRACT": 17031061800.000000, "LATITUDE": 41.946385, "LONGITUDE": -87.646525 }, "geometry": { "type": "Point", "coordinates": [ -87.646525, 41.946385 ] } },
{ "type": "Feature", "properties": { "STORE NAME": "JEWEL FOOD STORE #3721", "SQUARE FEET": 49513, "BUFFER SIZE": "A", "ADDRESS": "6107 S ARCHER AVE", "ZIP CODE": 60638, "CENSUS TRACT": 17031560800.000000, "LATITUDE": 41.794355, "LONGITUDE": -87.770527 }, "geometry": { "type": "Point", "coordinates": [ -87.770527, 41.794355 ] } },
{ "type": "Feature", "properties": { "STORE NAME": "JEWEL FOOD STORES #3262", "SQUARE FEET": 35000, "BUFFER SIZE": "A", "ADDRESS": "4660 W IRVING PARK RD", "ZIP CODE": 60641, "CENSUS TRACT": 17031831700.000000, "LATITUDE": 41.953554, "LONGITUDE": -87.745055 }, "geometry": { "type": "Point", "coordinates": [ -87.745055, 41.953554 ] } },
{ "type": "Feature", "properties": { "STORE NAME": "JEWEL-OSCO #3632", "SQUARE FEET": 62349, "BUFFER SIZE": "A", "ADDRESS": "3630 N SOUTHPORT AVE", "ZIP CODE": 60613, "CENSUS TRACT": 17031060400.000000, "LATITUDE": 41.948005, "LONGITUDE": -87.664186 }, "geometry": { "type": "Point", "coordinates": [ -87.664186, 41.948005 ] } },
{ "type": "Feature", "properties": { "STORE NAME": "J & J EUROPEAN DELI", "SQUARE FEET": 3000, "BUFFER SIZE": "B", "ADDRESS": "5960 W LAWRENCE AVE", "ZIP CODE": 60630, "CENSUS TRACT": 17031150401.000000, "LATITUDE": 41.967765, "LONGITUDE": -87.777020 }, "geometry": { "type": "Point", "coordinates": [ -87.77702, 41.967765 ] } },
{ "type": "Feature", "properties": { "STORE NAME": "J K & S FOOD & LIQUOR", "SQUARE FEET": 3024, "BUFFER SIZE": "B", "ADDRESS": "503 W 59TH ST", "ZIP CODE": 60621, "CENSUS TRACT": 17031834600.000000, "LATITUDE": 41.787039, "LONGITUDE": -87.637813 }, "geometry": { "type": "Point", "coordinates": [ -87.637813, 41.787039 ] } },
{ "type": "Feature", "properties": { "STORE NAME": "JOE'S FOOD AND LIQUOR DEPOT", "SQUARE FEET": 4000, "BUFFER SIZE": "B", "ADDRESS": "5834 W FULLERTON AVE", "ZIP CODE": 60639, "CENSUS TRACT": 17031190602.000000, "LATITUDE": 41.923992, "LONGITUDE": -87.772289 }, "geometry": { "type": "Point", "coordinates": [ -87.772289, 41.923992 ] } },
{ "type": "Feature", "properties": { "STORE NAME": "JOE'S FOOD & LIQUOR", "SQUARE FEET": 3500, "BUFFER SIZE": "B", "ADDRESS": "3626 W LAWRENCE AVE", "ZIP CODE": 60625, "CENSUS TRACT": 17031140301.000000, "LATITUDE": 41.968445, "LONGITUDE": -87.719417 }, "geometry": { "type": "Point", "coordinates": [ -87.719417, 41.968445 ] } },
{ "type": "Feature", "properties": { "STORE NAME": "JOLANTA'S INTERNATIONAL DELI", "SQUARE FEET": 10001, "BUFFER SIZE": "A", "ADDRESS": "5914 W HIGGINS AVE", "ZIP CODE": 60630, "CENSUS TRACT": 17031110400.000000, "LATITUDE": 41.972791, "LONGITUDE": -87.776372 }, "geometry": { "type": "Point", "coordinates": [ -87.776372, 41.972791 ] } },
{ "type": "Feature", "properties": { "STORE NAME": "JOSEPH FOOD MART", "SQUARE FEET": 3000, "BUFFER SIZE": "B", "ADDRESS": "8235 W IRVING PARK RD", "ZIP CODE": 60634, "CENSUS TRACT": 17031170500.000000, "LATITUDE": 41.952019, "LONGITUDE": -87.833167 }, "geometry": { "type": "Point", "coordinates": [ -87.833167, 41.952019 ] } },
{ "type": "Feature", "properties": { "STORE NAME": "J R GROCERY STORE", "SQUARE FEET": 10001, "BUFFER SIZE": "A", "ADDRESS": "505 E 134TH ST", "ZIP CODE": 60827, "CENSUS TRACT": 17031540101.000000, "LATITUDE": 41.651761, "LONGITUDE": -87.609367 }, "geometry": { "type": "Point", "coordinates": [ -87.609367, 41.651761 ] } },
{ "type": "Feature", "properties": { "STORE NAME": "KAMDAR PLAZA INC", "SQUARE FEET": 5500, "BUFFER SIZE": "B", "ADDRESS": "2646 W DEVON AVE", "ZIP CODE": 60659, "CENSUS TRACT": 17031020602.000000, "LATITUDE": 41.997722, "LONGITUDE": -87.696641 }, "geometry": { "type": "Point", "coordinates": [ -87.696641, 41.997722 ] } },
{ "type": "Feature", "properties": { "STORE NAME": "Kan-Zaman Mart, Inc.", "SQUARE FEET": 4600, "BUFFER SIZE": "B", "ADDRESS": "2005 S MICHIGAN AVE", "ZIP CODE": 60616, "CENSUS TRACT": 17031330100.000000, "LATITUDE": 41.855318, "LONGITUDE": -87.623727 }, "geometry": { "type": "Point", "coordinates": [ -87.623727, 41.855318 ] } },
{ "type": "Feature", "properties": { "STORE NAME": "KAPS FOODS", "SQUARE FEET": 4100, "BUFFER SIZE": "B", "ADDRESS": "3557 S CALIFORNIA AVE", "ZIP CODE": 60632, "CENSUS TRACT": 17031580100.000000, "LATITUDE": 41.828384, "LONGITUDE": -87.694620 }, "geometry": { "type": "Point", "coordinates": [ -87.69462, 41.828384 ] } },
{ "type": "Feature", "properties": { "STORE NAME": "K BUENA", "SQUARE FEET": 3500, "BUFFER SIZE": "B", "ADDRESS": "4322 W MARQUETTE RD", "ZIP CODE": 60629, "CENSUS TRACT": 17031650301.000000, "LATITUDE": 41.771383, "LONGITUDE": -87.730953 }, "geometry": { "type": "Point", "coordinates": [ -87.730953, 41.771383 ] } },
{ "type": "Feature", "properties": { "STORE NAME": "KEY FOOD LIQUOR", "SQUARE FEET": 3800, "BUFFER SIZE": "B", "ADDRESS": "13355 S INDIANA AVE", "ZIP CODE": 60827, "CENSUS TRACT": 17031540101.000000, "LATITUDE": 41.651973, "LONGITUDE": -87.617084 }, "geometry": { "type": "Point", "coordinates": [ -87.617084, 41.651973 ] } },
{ "type": "Feature", "properties": { "STORE NAME": "KHALIL FOOD & LIQUOR", "SQUARE FEET": 3000, "BUFFER SIZE": "B", "ADDRESS": "146 W 103RD ST", "ZIP CODE": 60628, "CENSUS TRACT": 17031490700.000000, "LATITUDE": 41.707218, "LONGITUDE": -87.627752 }, "geometry": { "type": "Point", "coordinates": [ -87.627752, 41.707218 ] } },
{ "type": "Feature", "properties": { "STORE NAME": "KING FOOD & LIQUOR", "SQUARE FEET": 3750, "BUFFER SIZE": "B", "ADDRESS": "6858 S HALSTED ST", "ZIP CODE": 60621, "CENSUS TRACT": 17031681100.000000, "LATITUDE": 41.768926, "LONGITUDE": -87.644656 }, "geometry": { "type": "Point", "coordinates": [ -87.644656, 41.768926 ] } },
{ "type": "Feature", "properties": { "STORE NAME": "K & K FOOD & LIQUOR", "SQUARE FEET": 4200, "BUFFER SIZE": "B", "ADDRESS": "1130 W 51ST ST", "ZIP CODE": 60609, "CENSUS TRACT": 17031611000.000000, "LATITUDE": 41.801577, "LONGITUDE": -87.653788 }, "geometry": { "type": "Point", "coordinates": [ -87.653788, 41.801577 ] } },
{ "type": "Feature", "properties": { "STORE NAME": "KOL TUV KOSHER FOODS INC", "SQUARE FEET": 3000, "BUFFER SIZE": "B", "ADDRESS": "2938 W DEVON AVE", "ZIP CODE": 60659, "CENSUS TRACT": 17031020601.000000, "LATITUDE": 41.997601, "LONGITUDE": -87.703613 }, "geometry": { "type": "Point", "coordinates": [ -87.703613, 41.997601 ] } },
{ "type": "Feature", "properties": { "STORE NAME": "KORDIAN'S MARKET", "SQUARE FEET": 4610, "BUFFER SIZE": "B", "ADDRESS": "6332 W HIGGINS AVE", "ZIP CODE": 60630, "CENSUS TRACT": 17031110300.000000, "LATITUDE": 41.975984, "LONGITUDE": -87.786561 }, "geometry": { "type": "Point", "coordinates": [ -87.786561, 41.975984 ] } },
{ "type": "Feature", "properties": { "STORE NAME": "KRAKUS DELI,  INC", "SQUARE FEET": 3500, "BUFFER SIZE": "B", "ADDRESS": "5155 W ADDISON ST", "ZIP CODE": 60641, "CENSUS TRACT": 17031151001.000000, "LATITUDE": 41.945895, "LONGITUDE": -87.756646 }, "geometry": { "type": "Point", "coordinates": [ -87.756646, 41.945895 ] } },
{ "type": "Feature", "properties": { "STORE NAME": "LA CASA DEL PUEBLO INC", "SQUARE FEET": 10001, "BUFFER SIZE": "A", "ADDRESS": "1810 S BLUE ISLAND AVE", "ZIP CODE": 60608, "CENSUS TRACT": 17031310600.000000, "LATITUDE": 41.857453, "LONGITUDE": -87.661688 }, "geometry": { "type": "Point", "coordinates": [ -87.661688, 41.857453 ] } },
{ "type": "Feature", "properties": { "STORE NAME": "LA CIENEGA SUPER FOOD INC", "SQUARE FEET": 10000, "BUFFER SIZE": "A", "ADDRESS": "10736 S EWING AVE", "ZIP CODE": 60617, "CENSUS TRACT": 17031520300.000000, "LATITUDE": 41.699815, "LONGITUDE": -87.535427 }, "geometry": { "type": "Point", "coordinates": [ -87.535427, 41.699815 ] } },
{ "type": "Feature", "properties": { "STORE NAME": "LA FERIA GROCERY", "SQUARE FEET": 10001, "BUFFER SIZE": "A", "ADDRESS": "9704 S COMMERCIAL AVE", "ZIP CODE": 60617, "CENSUS TRACT": 17031510100.000000, "LATITUDE": 41.718912, "LONGITUDE": -87.551174 }, "geometry": { "type": "Point", "coordinates": [ -87.551174, 41.718912 ] } },
{ "type": "Feature", "properties": { "STORE NAME": "LA GUERRERENSE", "SQUARE FEET": 3000, "BUFFER SIZE": "B", "ADDRESS": "4149 W ARMITAGE AVE", "ZIP CODE": 60639, "CENSUS TRACT": 17031831200.000000, "LATITUDE": 41.917000, "LONGITUDE": -87.730989 }, "geometry": { "type": "Point", "coordinates": [ -87.730989, 41.917 ] } },
{ "type": "Feature", "properties": { "STORE NAME": "LA INTERNATIONAL", "SQUARE FEET": 3000, "BUFFER SIZE": "B", "ADDRESS": "4301 S ARCHER AVE", "ZIP CODE": 60632, "CENSUS TRACT": 17031580502.000000, "LATITUDE": 41.815301, "LONGITUDE": -87.702042 }, "geometry": { "type": "Point", "coordinates": [ -87.702042, 41.815301 ] } },
{ "type": "Feature", "properties": { "STORE NAME": "LA JALISCIENCE", "SQUARE FEET": 3000, "BUFFER SIZE": "B", "ADDRESS": "3239 W 26TH ST", "ZIP CODE": 60623, "CENSUS TRACT": 17031840800.000000, "LATITUDE": 41.844388, "LONGITUDE": -87.706497 }, "geometry": { "type": "Point", "coordinates": [ -87.706497, 41.844388 ] } },
{ "type": "Feature", "properties": { "STORE NAME": "LAKE VIEW FOODS INC", "SQUARE FEET": 3100, "BUFFER SIZE": "B", "ADDRESS": "4106 N SHERIDAN RD", "ZIP CODE": 60613, "CENSUS TRACT": 17031032100.000000, "LATITUDE": 41.957040, "LONGITUDE": -87.654763 }, "geometry": { "type": "Point", "coordinates": [ -87.654763, 41.95704 ] } },
{ "type": "Feature", "properties": { "STORE NAME": "LA LOMA \"CARNICERIA Y TAQUERIA\"", "SQUARE FEET": 4501, "BUFFER SIZE": "B", "ADDRESS": "2535 N LARAMIE AVE", "ZIP CODE": 60639, "CENSUS TRACT": 17031190800.000000, "LATITUDE": 41.927036, "LONGITUDE": -87.756106 }, "geometry": { "type": "Point", "coordinates": [ -87.756106, 41.927036 ] } },
{ "type": "Feature", "properties": { "STORE NAME": "LA MERCED INC", "SQUARE FEET": 10001, "BUFFER SIZE": "A", "ADDRESS": "4335 W 26TH ST", "ZIP CODE": 60623, "CENSUS TRACT": 17031301801.000000, "LATITUDE": 41.844033, "LONGITUDE": -87.732433 }, "geometry": { "type": "Point", "coordinates": [ -87.732433, 41.844033 ] } },
{ "type": "Feature", "properties": { "STORE NAME": "LA NUEVA IMAGEN GROCERY, INC.", "SQUARE FEET": 3000, "BUFFER SIZE": "B", "ADDRESS": "2459 S MILLARD AVE", "ZIP CODE": 60623, "CENSUS TRACT": 17031300600.000000, "LATITUDE": 41.846297, "LONGITUDE": -87.715916 }, "geometry": { "type": "Point", "coordinates": [ -87.715916, 41.846297 ] } },
{ "type": "Feature", "properties": { "STORE NAME": "LA PERLA TAPATIA BAKERY", "SQUARE FEET": 3000, "BUFFER SIZE": "B", "ADDRESS": "4214 W NORTH AVE", "ZIP CODE": 60639, "CENSUS TRACT": 17031230500.000000, "LATITUDE": 41.909920, "LONGITUDE": -87.731971 }, "geometry": { "type": "Point", "coordinates": [ -87.731971, 41.90992 ] } },
{ "type": "Feature", "properties": { "STORE NAME": "LA PLAMA", "SQUARE FEET": 15000, "BUFFER SIZE": "A", "ADDRESS": "4173 S ARCHER AVE", "ZIP CODE": 60632, "CENSUS TRACT": 17031580501.000000, "LATITUDE": 41.817579, "LONGITUDE": -87.698321 }, "geometry": { "type": "Point", "coordinates": [ -87.698321, 41.817579 ] } },
{ "type": "Feature", "properties": { "STORE NAME": "L'APPETITO", "SQUARE FEET": 2900, "BUFFER SIZE": "B", "ADDRESS": "875 N MICHIGAN AVE", "ZIP CODE": 60611, "CENSUS TRACT": 17031081300.000000, "LATITUDE": 41.898949, "LONGITUDE": -87.623975 }, "geometry": { "type": "Point", "coordinates": [ -87.623975, 41.898949 ] } },
{ "type": "Feature", "properties": { "STORE NAME": "LA PROVIDENCIA FOOD MART", "SQUARE FEET": 2572, "BUFFER SIZE": "B", "ADDRESS": "1658 W 21ST ST", "ZIP CODE": 60608, "CENSUS TRACT": 17031310800.000000, "LATITUDE": 41.854219, "LONGITUDE": -87.668458 }, "geometry": { "type": "Point", "coordinates": [ -87.668458, 41.854219 ] } },
{ "type": "Feature", "properties": { "STORE NAME": "LARAMIE BAKERY & DELI", "SQUARE FEET": 12331, "BUFFER SIZE": "A", "ADDRESS": "3232 N HARLEM AVE", "ZIP CODE": 60634, "CENSUS TRACT": 17031170800.000000, "LATITUDE": 41.938986, "LONGITUDE": -87.806929 }, "geometry": { "type": "Point", "coordinates": [ -87.806929, 41.938986 ] } },
{ "type": "Feature", "properties": { "STORE NAME": "LATIN GROCERY & LIQUOR, INC", "SQUARE FEET": 10001, "BUFFER SIZE": "A", "ADDRESS": "3800 W NORTH AVE", "ZIP CODE": 60647, "CENSUS TRACT": 17031230400.000000, "LATITUDE": 41.910049, "LONGITUDE": -87.721458 }, "geometry": { "type": "Point", "coordinates": [ -87.721458, 41.910049 ] } },
{ "type": "Feature", "properties": { "STORE NAME": "LA UNICA FOOD MART, INC.", "SQUARE FEET": 5000, "BUFFER SIZE": "B", "ADDRESS": "1515 W DEVON AVE", "ZIP CODE": 60660, "CENSUS TRACT": 17031030200.000000, "LATITUDE": 41.997993, "LONGITUDE": -87.668428 }, "geometry": { "type": "Point", "coordinates": [ -87.668428, 41.997993 ] } },
{ "type": "Feature", "properties": { "STORE NAME": "LAWNDALE FOOD MARKET", "SQUARE FEET": 6000, "BUFFER SIZE": "B", "ADDRESS": "3705 W 16TH ST", "ZIP CODE": 60623, "CENSUS TRACT": 17031292200.000000, "LATITUDE": 41.858834, "LONGITUDE": -87.717867 }, "geometry": { "type": "Point", "coordinates": [ -87.717867, 41.858834 ] } },
{ "type": "Feature", "properties": { "STORE NAME": "Laxi Liquor", "SQUARE FEET": 3200, "BUFFER SIZE": "B", "ADDRESS": "6922 W GRAND AVE", "ZIP CODE": 60707, "CENSUS TRACT": 17031831600.000000, "LATITUDE": 41.923681, "LONGITUDE": -87.798676 }, "geometry": { "type": "Point", "coordinates": [ -87.798676, 41.923681 ] } },
{ "type": "Feature", "properties": { "STORE NAME": "LEMEN SUN CORP.", "SQUARE FEET": 3600, "BUFFER SIZE": "B", "ADDRESS": "2832 S WENTWORTH AVE", "ZIP CODE": 60616, "CENSUS TRACT": 17031340400.000000, "LATITUDE": 41.841604, "LONGITUDE": -87.631916 }, "geometry": { "type": "Point", "coordinates": [ -87.631916, 41.841604 ] } },
{ "type": "Feature", "properties": { "STORE NAME": "LINDO MICHOACAN", "SQUARE FEET": 8600, "BUFFER SIZE": "B", "ADDRESS": "3142 W LAWRENCE AVE", "ZIP CODE": 60625, "CENSUS TRACT": 17031140100.000000, "LATITUDE": 41.968573, "LONGITUDE": -87.707788 }, "geometry": { "type": "Point", "coordinates": [ -87.707788, 41.968573 ] } },
{ "type": "Feature", "properties": { "STORE NAME": "LOGAN CERTIFIED FOODS CORP", "SQUARE FEET": 4500, "BUFFER SIZE": "B", "ADDRESS": "2857 W DIVERSEY AVE", "ZIP CODE": 60647, "CENSUS TRACT": 17031220400.000000, "LATITUDE": 41.931970, "LONGITUDE": -87.699932 }, "geometry": { "type": "Point", "coordinates": [ -87.699932, 41.93197 ] } },
{ "type": "Feature", "properties": { "STORE NAME": "LORETO GROCERY", "SQUARE FEET": 4499, "BUFFER SIZE": "B", "ADDRESS": "4600 S FAIRFIELD AVE", "ZIP CODE": 60632, "CENSUS TRACT": 17031842800.000000, "LATITUDE": 41.810001, "LONGITUDE": -87.693181 }, "geometry": { "type": "Point", "coordinates": [ -87.693181, 41.810001 ] } },
{ "type": "Feature", "properties": { "STORE NAME": "LOS CUATRO HERMANOS GROCERY", "SQUARE FEET": 10001, "BUFFER SIZE": "A", "ADDRESS": "1858 S ALLPORT ST", "ZIP CODE": 60608, "CENSUS TRACT": 17031310600.000000, "LATITUDE": 41.856202, "LONGITUDE": -87.657745 }, "geometry": { "type": "Point", "coordinates": [ -87.657745, 41.856202 ] } },
{ "type": "Feature", "properties": { "STORE NAME": "LOS POTRILLOS", "SQUARE FEET": 7000, "BUFFER SIZE": "B", "ADDRESS": "3624 W BELMONT AVE", "ZIP CODE": 60618, "CENSUS TRACT": 17031831100.000000, "LATITUDE": 41.939310, "LONGITUDE": -87.718540 }, "geometry": { "type": "Point", "coordinates": [ -87.71854, 41.93931 ] } },
{ "type": "Feature", "properties": { "STORE NAME": "LOS SAUCES GROCERY", "SQUARE FEET": 2800, "BUFFER SIZE": "B", "ADDRESS": "5852 W DIVERSEY AVE", "ZIP CODE": 60639, "CENSUS TRACT": 17031190402.000000, "LATITUDE": 41.931288, "LONGITUDE": -87.773241 }, "geometry": { "type": "Point", "coordinates": [ -87.773241, 41.931288 ] } },
{ "type": "Feature", "properties": { "STORE NAME": "LOUIS' GROCERIES", "SQUARE FEET": null, "BUFFER SIZE": "A", "ADDRESS": "7604 S COTTAGE GROVE AVE", "ZIP CODE": 60619, "CENSUS TRACT": 17031691400.000000, "LATITUDE": 41.756550, "LONGITUDE": -87.605483 }, "geometry": { "type": "Point", "coordinates": [ -87.605483, 41.75655 ] } },
{ "type": "Feature", "properties": { "STORE NAME": "LUCIANO'S GROCERY-18TH ST", "SQUARE FEET": 6000, "BUFFER SIZE": "B", "ADDRESS": "1714 W 18TH ST", "ZIP CODE": 60608, "CENSUS TRACT": 17031310800.000000, "LATITUDE": 41.857857, "LONGITUDE": -87.669420 }, "geometry": { "type": "Point", "coordinates": [ -87.66942, 41.857857 ] } },
{ "type": "Feature", "properties": { "STORE NAME": "LUX 2 FOOD & LIQUOR", "SQUARE FEET": 2500, "BUFFER SIZE": "B", "ADDRESS": "7550 S MAY ST", "ZIP CODE": 60620, "CENSUS TRACT": 17031710200.000000, "LATITUDE": 41.756163, "LONGITUDE": -87.652820 }, "geometry": { "type": "Point", "coordinates": [ -87.65282, 41.756163 ] } },
{ "type": "Feature", "properties": { "STORE NAME": "MACIAS PRODUCE INC.", "SQUARE FEET": 7000, "BUFFER SIZE": "B", "ADDRESS": "8933 S COMMERCIAL AVE", "ZIP CODE": 60617, "CENSUS TRACT": 17031833900.000000, "LATITUDE": 41.732734, "LONGITUDE": -87.551173 }, "geometry": { "type": "Point", "coordinates": [ -87.551173, 41.732734 ] } },
{ "type": "Feature", "properties": { "STORE NAME": "MAKOLA AFRICAN SUPERMARKET #2", "SQUARE FEET": 3500, "BUFFER SIZE": "B", "ADDRESS": "4501 N SHERIDAN RD", "ZIP CODE": 60640, "CENSUS TRACT": 17031031502.000000, "LATITUDE": 41.963650, "LONGITUDE": -87.654622 }, "geometry": { "type": "Point", "coordinates": [ -87.654622, 41.96365 ] } },
{ "type": "Feature", "properties": { "STORE NAME": "MANDY'S LIQUOR", "SQUARE FEET": 3000, "BUFFER SIZE": "B", "ADDRESS": "1957 W LAWRENCE AVE", "ZIP CODE": 60640, "CENSUS TRACT": 17031830800.000000, "LATITUDE": 41.968656, "LONGITUDE": -87.678438 }, "geometry": { "type": "Point", "coordinates": [ -87.678438, 41.968656 ] } },
{ "type": "Feature", "properties": { "STORE NAME": "MARIANO'S FRESH MARKET #8507", "SQUARE FEET": null, "BUFFER SIZE": "A", "ADDRESS": "5353 N ELSTON AVE", "ZIP CODE": 60630, "CENSUS TRACT": 17031110100.000000, "LATITUDE": 41.978710, "LONGITUDE": -87.757154 }, "geometry": { "type": "Point", "coordinates": [ -87.757154, 41.97871 ] } },
{ "type": "Feature", "properties": { "STORE NAME": "MARIO 'S BUTCHER SHOP FD CNTR", "SQUARE FEET": 10001, "BUFFER SIZE": "A", "ADDRESS": "5817 W MADISON ST", "ZIP CODE": 60644, "CENSUS TRACT": 17031252101.000000, "LATITUDE": 41.880045, "LONGITUDE": -87.770493 }, "geometry": { "type": "Point", "coordinates": [ -87.770493, 41.880045 ] } },
{ "type": "Feature", "properties": { "STORE NAME": "MARKET IN THE PARK", "SQUARE FEET": 5049, "BUFFER SIZE": "B", "ADDRESS": "5050 S LAKE SHORE DR", "ZIP CODE": 60615, "CENSUS TRACT": 17031390700.000000, "LATITUDE": 41.802880, "LONGITUDE": -87.581844 }, "geometry": { "type": "Point", "coordinates": [ -87.581844, 41.80288 ] } },
{ "type": "Feature", "properties": { "STORE NAME": "MA'S & PA'S GROCERY SNACK SHOP", "SQUARE FEET": 4500, "BUFFER SIZE": "B", "ADDRESS": "804 S CALIFORNIA AVE", "ZIP CODE": 60612, "CENSUS TRACT": 17031271800.000000, "LATITUDE": 41.870878, "LONGITUDE": -87.696167 }, "geometry": { "type": "Point", "coordinates": [ -87.696167, 41.870878 ] } },
{ "type": "Feature", "properties": { "STORE NAME": "MAYFAIR MARKET PLACE", "SQUARE FEET": 12000, "BUFFER SIZE": "A", "ADDRESS": "4728 N PULASKI RD", "ZIP CODE": 60630, "CENSUS TRACT": 140500.000000, "LATITUDE": 41.967267, "LONGITUDE": -87.728147 }, "geometry": { "type": "Point", "coordinates": [ -87.728147, 41.967267 ] } },
{ "type": "Feature", "properties": { "STORE NAME": "MAYFLOWER FOOD", "SQUARE FEET": 6000, "BUFFER SIZE": "B", "ADDRESS": "2104 S ARCHER AVE", "ZIP CODE": 60616, "CENSUS TRACT": 17031841100.000000, "LATITUDE": 41.854265, "LONGITUDE": -87.632190 }, "geometry": { "type": "Point", "coordinates": [ -87.63219, 41.854265 ] } },
{ "type": "Feature", "properties": { "STORE NAME": "M & D VARIETY STORE", "SQUARE FEET": 4500, "BUFFER SIZE": "B", "ADDRESS": "1300 W 111TH ST", "ZIP CODE": 60643, "CENSUS TRACT": 17031750100.000000, "LATITUDE": 41.692320, "LONGITUDE": -87.654663 }, "geometry": { "type": "Point", "coordinates": [ -87.654663, 41.69232 ] } },
{ "type": "Feature", "properties": { "STORE NAME": "MEHRAB ZABIHA MEAT & TOBACCO", "SQUARE FEET": 3000, "BUFFER SIZE": "B", "ADDRESS": "2445 W DEVON AVE", "ZIP CODE": 60659, "CENSUS TRACT": 17031020802.000000, "LATITUDE": 41.997592, "LONGITUDE": -87.691668 }, "geometry": { "type": "Point", "coordinates": [ -87.691668, 41.997592 ] } },